Distributor,Customer Name,City,Country,Latitude,Longitude,Channel,Sub-channel,Product Name,Product Class,Quantity,Price,Sales,Month,Year,Name of Sales Rep,Manager,Sales Team,Sales_Level
Prohaska-Kuhic ,"Wunsch, Mills and Walter ",Kielce,Poland,50.8725,20.6319,Pharmacy,Institution,Tacrodomide,Antipiretics,10.0,420,4200.0,January,2018,Stella Given,Alisha Cordwell,Charlie,Low
Cassin  ,Block-Romaguera Pharmaceutical Limited,Tarnowskie Góry,Poland,50.45,18.8667,Hospital,Private,Finanel,Antimalarial,20.0,206,4120.0,January,2018,Sheila Stones,Britanny Bold,Delta,Low
Smith Inc ,Doyle-Tillman Pharmaceutical Ltd,Dęblin,Poland,51.5667,21.8614,Hospital,Private,Tacrodomide,Antipiretics,2.0,420,840.0,January,2018,Stella Given,Alisha Cordwell,Charlie,Low
Carter-Conn  ,Jast-Cruickshank Pharma Plc,Białystok,Poland,53.1167,23.1667,Pharmacy,Retail,Sevotrana Tiafoxin,Analgesics,50.0,460,23000.0,January,2018,Abigail Thompson,Tracy Banks,Bravo,Medium
Gottlieb-Cruickshank  ,Will and Sons Pharmaceutical Limited,Poznań,Poland,52.4,16.9167,Hospital,Government,Afretosine,Mood Stabilizers,120.0,404,48480.0,January,2018,Stella Given,Alisha Cordwell,Charlie,High
Gottlieb-Cruickshank  ,Schaden-Hirthe Pharmaceutical Ltd,Świdnica,Poland,50.8438,16.4886,Pharmacy,Institution,Albudazole Erobloc,Antiseptics,1.0,563,563.0,January,2018,Jimmy Grey,Alisha Cordwell,Charlie,Low
Gottlieb-Cruickshank  ,Carter-Conn Pharma Plc,Brwinów,Poland,52.1417,20.7167,Hospital,Private,Magnemunex,Antiseptics,5.0,689,3445.0,January,2018,Sheila Stones,Britanny Bold,Delta,Low
Gottlieb-Cruickshank  ,Hill Ltd ,Gliwice,Poland,50.2976,18.6766,Pharmacy,Retail,Rebedase Aplencor,Mood Stabilizers,100.0,180,18000.0,January,2018,Sheila Stones,Britanny Bold,Delta,Medium
Gottlieb-Cruickshank  ,Senger-Kirlin Pharmacy,Kobyłka,Poland,52.3395,21.1959,Hospital,Government,Aprerase,Antipiretics,20.0,726,14520.0,January,2018,Steve Pepple,Tracy Banks,Bravo,Medium
Prohaska-Kuhic ,Mante-Grady Pharm,Lubaczów,Poland,50.1556,23.123,Pharmacy,Institution,Sanctumine,Antimalarial,3.0,149,447.0,January,2018,Erica Jones,James Goodwill,Alfa,Low
Prohaska-Kuhic ,Okuneva-Corkery ,Kostrzyn nad Odrą,Poland,52.5883,14.6667,Hospital,Government,Comzyme,Antibiotics,4.0,114,456.0,January,2018,Stella Given,Alisha Cordwell,Charlie,Low
Cassin  ,Nader-Gaylord Pharmaceutical Limited,Sobótka,Poland,50.8986,16.7444,Hospital,Private,Aggretisol,Antimalarial,6.0,262,1572.0,January,2018,Alan Ray,James Goodwill,Alfa,Low
Carter-Conn  ,"Balistreri, Torp and Gulgowski Pharmacy",Chełmża,Poland,53.2,18.6,Hospital,Private,Diprotaine,Antiseptics,40.0,318,12720.0,January,2018,Alan Ray,James Goodwill,Alfa,Medium
Prohaska-Kuhic ,Lindgren-Simonis Pharm,Biskupiec,Poland,53.8647,20.9569,Pharmacy,Retail,Afluferon Entrarenone,Antimalarial,5.0,104,520.0,January,2018,Mary Gerrard,Britanny Bold,Delta,Low
Prohaska-Kuhic ,"Denesik, Walter and Beatty Pharma Plc",Ostrów Mazowiecka,Poland,52.8,21.9,Pharmacy,Institution,Sumanazole,Analgesics,100.0,529,52900.0,January,2018,Sheila Stones,Britanny Bold,Delta,High
Smith Inc ,Ondricka Ltd Pharmacy,Świnoujście,Poland,53.9167,14.25,Hospital,Government,Exotropin Empizine,Mood Stabilizers,2.0,785,1570.0,January,2018,Anne Wu,Britanny Bold,Delta,Low
Beier  ,Prohaska-Kuhic Pharmacy,Wisła,Poland,49.6667,18.8667,Pharmacy,Institution,Feruprazole,Mood Stabilizers,5.0,115,575.0,January,2018,Anne Wu,Britanny Bold,Delta,Low
Beier  ,Hermiston LLC ,Strzegom,Poland,51.0,16.3333,Pharmacy,Institution,Travoloride,Antiseptics,30.0,785,23550.0,January,2018,Anne Wu,Britanny Bold,Delta,Medium
Gottlieb-Cruickshank  ,Hermiston LLC ,Strzegom,Poland,51.0,16.3333,Pharmacy,Institution,Cyclovital,Antimalarial,30.0,677,20310.0,January,2018,Anne Wu,Britanny Bold,Delta,Medium
Schuppe Inc ,Spencer-Jerde Pharmacy,Przeworsk,Poland,50.0591,22.4941,Pharmacy,Institution,Travosoline Capolac,Antipiretics,3.0,610,1830.0,January,2018,Mary Gerrard,Britanny Bold,Delta,Low
Gottlieb-Cruickshank  ,Emard-O'Connell Pharmacy,Zakopane,Poland,49.2994,19.9519,Pharmacy,Retail,Acelimus,Analgesics,1.0,746,746.0,January,2018,Sheila Stones,Britanny Bold,Delta,Low
Gottlieb-Cruickshank  ,"Herman, Rice and Rippin ",Ziębice,Poland,50.6,17.0444,Hospital,Government,Presetron,Mood Stabilizers,30.0,216,6480.0,January,2018,Stella Given,Alisha Cordwell,Charlie,Low
Beier  ,Romaguera-Fay Pharmaceutical Limited,Trzemeszno,Poland,52.5614,17.8231,Pharmacy,Retail,Lansopril Acribax,Antipiretics,36.0,492,17712.0,January,2018,Alan Ray,James Goodwill,Alfa,Medium
Gottlieb-Cruickshank  ,Jast-Cruickshank Pharma Plc,Białystok,Poland,53.1167,23.1667,Pharmacy,Retail,Panpion,Antiseptics,1.0,692,692.0,January,2018,Sheila Stones,Britanny Bold,Delta,Low
Smith Inc ,Hansen Group Pharm,Gryfów Śląski,Poland,51.0308,15.4202,Hospital,Private,Albudazole Erobloc,Antiseptics,4.0,563,2252.0,January,2018,Anne Wu,Britanny Bold,Delta,Low
Prohaska-Kuhic ,Nader-Borer Pharma Plc,Bielawa,Poland,50.6908,16.623,Pharmacy,Retail,Adriacaine,Mood Stabilizers,10.0,361,3610.0,January,2018,Abigail Thompson,Tracy Banks,Bravo,Low
Gottlieb-Cruickshank  ,Crist Inc ,Stary Sącz,Poland,49.5625,20.6364,Hospital,Private,Angioparin Brimosumab,Mood Stabilizers,2.0,682,1364.0,January,2018,Daniel Gates,Alisha Cordwell,Charlie,Low
Smith Inc ,Buckridge-Davis ,Legnica,Poland,51.2101,16.1619,Hospital,Private,Cephovelam,Mood Stabilizers,4.0,542,2168.0,January,2018,Anne Wu,Britanny Bold,Delta,Low
Smith Inc ,"Beer, Kohler and Beatty Pharmaceutical Ltd",Rypin,Poland,53.0667,19.45,Pharmacy,Retail,Diprolimus,Antiseptics,20.0,634,12680.0,January,2018,Erica Jones,James Goodwill,Alfa,Medium
Gottlieb-Cruickshank  ,Bayer LLC Pharmaceutical Ltd,Bytów,Poland,54.1667,17.5,Hospital,Private,Methiclotide,Antibiotics,4.0,458,1832.0,January,2018,Mary Gerrard,Britanny Bold,Delta,Low
Smith Inc ,Lemke Ltd Pharm,Tarnów,Poland,50.0125,20.9883,Hospital,Private,Rositroban,Mood Stabilizers,40.0,481,19240.0,January,2018,Morris Garcia,Tracy Banks,Bravo,Medium
Gottlieb-Cruickshank  ,"Johnson, Friesen and Torphy Pharma Plc",Gryfino,Poland,53.2524,14.4883,Hospital,Government,Rebedase Aplencor,Mood Stabilizers,1.0,180,180.0,January,2018,Sheila Stones,Britanny Bold,Delta,Low
Prohaska-Kuhic ,"Beahan, Littel and Ondricka Pharmacy",Łęczyca,Poland,52.0583,19.2,Pharmacy,Institution,Insozyme,Antiseptics,2.0,655,1310.0,January,2018,Alan Ray,James Goodwill,Alfa,Low
Prohaska-Kuhic ,Parisian Ltd Pharm,Jelenia Góra,Poland,50.9,15.7333,Pharmacy,Institution,Diazemid Felcept,Analgesics,2.0,613,1226.0,January,2018,Jessica Smith,Britanny Bold,Delta,Low
Gottlieb-Cruickshank  ,"Bogan, Jacobs and Kris Pharmacy",Lubartów,Poland,51.4667,22.6,Pharmacy,Institution,Microroban Afatigomar,Antimalarial,1.0,478,478.0,January,2018,Mary Gerrard,Britanny Bold,Delta,Low
Smith Inc ,Haley PLC Pharmaceutical Limited,Opole,Poland,50.6722,17.9253,Pharmacy,Retail,Xenaminphen,Antimalarial,24.0,195,4680.0,January,2018,Jessica Smith,Britanny Bold,Delta,Low
Smith Inc ,Veum-Kerluke Pharmacy,Człuchów,Poland,53.65,17.3667,Pharmacy,Retail,Cricane Acamsumab,Antiseptics,20.0,22,440.0,January,2018,Abigail Thompson,Tracy Banks,Bravo,Low
Prohaska-Kuhic ,Balistreri-Watsica Pharmacy,Ełk,Poland,53.8167,22.35,Pharmacy,Retail,Bexridol,Antipiretics,4.0,80,320.0,January,2018,Morris Garcia,Tracy Banks,Bravo,Low
Gottlieb-Cruickshank  ,"Upton, Abernathy and Goodwin Pharmaceutical Ltd",Jarosław,Poland,50.0162,22.6778,Hospital,Government,Lansopril Acribax,Antipiretics,12.0,492,5904.0,January,2018,Jessica Smith,Britanny Bold,Delta,Low
Smith Inc ,Balistreri-Watsica Pharmacy,Ełk,Poland,53.8167,22.35,Pharmacy,Retail,Symdocet,Antipiretics,200.0,470,94000.0,January,2018,Thompson Crawford,James Goodwill,Alfa,High
Gottlieb-Cruickshank  ,"Moen, Murazik and Smith ",Siedlce,Poland,52.1833,22.2833,Pharmacy,Retail,Aquamycin Lacoran,Analgesics,2.0,345,690.0,January,2018,Stella Given,Alisha Cordwell,Charlie,Low
Gottlieb-Cruickshank  ,"Wunsch, Mills and Walter ",Kielce,Poland,50.8725,20.6319,Pharmacy,Institution,Ampinonide,Antimalarial,4.0,248,992.0,January,2018,Anne Wu,Britanny Bold,Delta,Low
Prohaska-Kuhic ,Hermiston and Sons Pharma Plc,Bochnia,Poland,49.9833,20.4333,Pharmacy,Institution,Penitrana,Analgesics,54.0,179,9666.0,January,2018,Morris Garcia,Tracy Banks,Bravo,Medium
Gottlieb-Cruickshank  ,"Reynolds, Jast and Mante Pharma Plc",Pleszew,Poland,51.8974,17.7856,Pharmacy,Institution,Adtiza Gammaluble,Antibiotics,4.0,452,1808.0,January,2018,Thompson Crawford,James Goodwill,Alfa,Low
Gottlieb-Cruickshank  ,Schaefer Group Pharmaceutical Limited,Ustroń,Poland,49.7167,18.8167,Hospital,Government,Acubulin,Antipiretics,24.0,490,11760.0,January,2018,Anne Wu,Britanny Bold,Delta,Medium
Prohaska-Kuhic ,Emard-O'Connell Pharmacy,Zakopane,Poland,49.2994,19.9519,Pharmacy,Retail,Lioletine Refliruvax,Analgesics,10.0,435,4350.0,January,2018,Thompson Crawford,James Goodwill,Alfa,Low
Prohaska-Kuhic ,Ritchie-Rodriguez Pharm,Łuków,Poland,51.9167,22.3833,Pharmacy,Retail,Lactubucil,Antipiretics,5.0,585,2925.0,January,2018,Mary Gerrard,Britanny Bold,Delta,Low
Prohaska-Kuhic ,Feest-Kshlerin Pharmaceutical Ltd,Świdnik,Poland,51.2333,22.7,Pharmacy,Institution,Liomulin,Mood Stabilizers,2.0,490,980.0,January,2018,Thompson Crawford,James Goodwill,Alfa,Low
Beier  ,"Moen, Murazik and Smith ",Siedlce,Poland,52.1833,22.2833,Pharmacy,Retail,Algluconium Dorzofoxin,Antibiotics,20.0,611,12220.0,January,2018,Anne Wu,Britanny Bold,Delta,Medium
Smith Inc ,Botsford PLC Pharmacy,Pabianice,Poland,51.6642,19.35,Pharmacy,Institution,Antilamin Clinbital,Antibiotics,10.0,664,6640.0,January,2018,Stella Given,Alisha Cordwell,Charlie,Low
Rohan   ,Kunze PLC Pharm,Darłowo,Poland,54.4167,16.4167,Hospital,Private,Palodizem,Mood Stabilizers,12.0,201,2412.0,January,2018,Alan Ray,James Goodwill,Alfa,Low
Cassin  ,Buckridge-Davis ,Legnica,Poland,51.2101,16.1619,Hospital,Private,Ergomethate,Mood Stabilizers,10.0,604,6040.0,January,2018,Daniel Gates,Alisha Cordwell,Charlie,Low
Prohaska-Kuhic ,Fritsch-Hauck Pharma Plc,Mysłowice,Poland,50.2333,19.1333,Hospital,Government,Alisteride Pemidizem,Antiseptics,5.0,35,175.0,January,2018,Erica Jones,James Goodwill,Alfa,Low
Gottlieb-Cruickshank  ,Kreiger Inc Pharma Plc,Mielec,Poland,50.2833,21.4333,Hospital,Private,Relenvice,Antimalarial,2.0,459,918.0,January,2018,Morris Garcia,Tracy Banks,Bravo,Low
Gottlieb-Cruickshank  ,Schulist-Zulauf Pharm,Tychy,Poland,50.1667,19.0,Hospital,Private,Cricane Acamsumab,Antiseptics,10.0,22,220.0,January,2018,Erica Jones,James Goodwill,Alfa,Low
Gottlieb-Cruickshank  ,Koch-Osinski Pharm,Sandomierz,Poland,50.6833,21.75,Hospital,Government,Bexridol,Antipiretics,5.0,80,400.0,January,2018,Stella Given,Alisha Cordwell,Charlie,Low
Gottlieb-Cruickshank  ,Bayer LLC Pharmaceutical Ltd,Bytów,Poland,54.1667,17.5,Hospital,Private,Adtiza Gammaluble,Antibiotics,6.0,452,2712.0,January,2018,Daniel Gates,Alisha Cordwell,Charlie,Low
Gottlieb-Cruickshank  ,Roob PLC ,Świedbodzin,Poland,52.25,15.5333,Pharmacy,Institution,Acantaine,Antibiotics,3.0,66,198.0,January,2018,Sheila Stones,Britanny Bold,Delta,Low
Gottlieb-Cruickshank  ,Romaguera-Fay Pharmaceutical Limited,Trzemeszno,Poland,52.5614,17.8231,Pharmacy,Retail,Insozyme,Antiseptics,50.0,655,32750.0,January,2018,Erica Jones,James Goodwill,Alfa,High
Prohaska-Kuhic ,Stehr-Champlin Pharmaceutical Limited,Nowe Miasto Lubawskie,Poland,53.4167,19.5833,Hospital,Government,Abtasol,Antiseptics,2.0,754,1508.0,January,2018,Daniel Gates,Alisha Cordwell,Charlie,Low
Cassin  ,"Hirthe, Williamson and Macejkovic Pharma Plc",Brzeg,Poland,50.8667,17.4833,Hospital,Government,Sevotrana Tiafoxin,Analgesics,10.0,460,4600.0,January,2018,Morris Garcia,Tracy Banks,Bravo,Low
Smith Inc ,Schaden-Hirthe Pharmaceutical Ltd,Świdnica,Poland,50.8438,16.4886,Pharmacy,Institution,Brimorix Amonine,Antibiotics,2.0,398,796.0,January,2018,Daniel Gates,Alisha Cordwell,Charlie,Low
Rohan   ,Rohan Inc ,Chojnów,Poland,51.2667,15.9333,Pharmacy,Institution,Alemtuvatol Megalinum,Analgesics,150.0,682,102300.0,January,2018,Sheila Stones,Britanny Bold,Delta,High
Smith Inc ,Runte-Marquardt Pharmaceutical Ltd,Olecko,Poland,54.0333,22.5,Hospital,Private,Lovavatol Azelavarix,Mood Stabilizers,20.0,106,2120.0,January,2018,Abigail Thompson,Tracy Banks,Bravo,Low
Gottlieb-Cruickshank  ,Okuneva-Corkery ,Kostrzyn nad Odrą,Poland,52.5883,14.6667,Hospital,Government,Lactubucil,Antipiretics,1.0,585,585.0,January,2018,Stella Given,Alisha Cordwell,Charlie,Low
Gottlieb-Cruickshank  ,Welch-Langworth ,Warsaw,Poland,52.2167,21.0333,Pharmacy,Retail,Menogine,Antiseptics,2.0,742,1484.0,January,2018,Thompson Crawford,James Goodwill,Alfa,Low
Beier  ,Lesch PLC Pharmacy,Wrocław,Poland,51.1077,17.0353,Hospital,Private,Robapril,Antipiretics,480.0,453,217440.0,January,2018,Daniel Gates,Alisha Cordwell,Charlie,High
Prohaska-Kuhic ,Denesik-Hintz Pharm,Międzyrzec Podlaski,Poland,51.9833,22.8,Pharmacy,Retail,Neuropogen Empibax,Analgesics,3.0,605,1815.0,January,2018,Thompson Crawford,James Goodwill,Alfa,Low
Gottlieb-Cruickshank  ,Bashirian-Kassulke Pharma Plc,Kraków,Poland,50.0614,19.9372,Hospital,Private,Insozyme,Antiseptics,1.0,655,655.0,January,2018,Daniel Gates,Alisha Cordwell,Charlie,Low
Cassin  ,"Upton, Abernathy and Goodwin Pharmaceutical Ltd",Jarosław,Poland,50.0162,22.677799999999994,Hospital,Government,Primatate Univatol,Mood Stabilizers,30.0,172,5160.0,January,2018,Jimmy Grey,Alisha Cordwell,Charlie,Low
Gottlieb-Cruickshank  ,Kreiger Inc Pharma Plc,Mielec,Poland,50.2833,21.4333,Hospital,Private,Afluferon Entrarenone,Antimalarial,10.0,104,1040.0,January,2018,Morris Garcia,Tracy Banks,Bravo,Low
Prohaska-Kuhic ,"Erdman, Senger and Oberbrunner Pharm",Rawa Mazowiecka,Poland,51.7667,20.25,Pharmacy,Retail,Thalilamide,Antibiotics,10.0,615,6150.0,January,2018,Daniel Gates,Alisha Cordwell,Charlie,Low
Smith Inc ,Ondricka Ltd Pharmacy,Świnoujście,Poland,53.9167,14.25,Hospital,Government,Apronazol,Antibiotics,200.0,472,94400.0,January,2018,Jimmy Grey,Alisha Cordwell,Charlie,High
Beier  ,Rohan Inc ,Chojnów,Poland,51.2667,15.9333,Pharmacy,Institution,Diprotaine,Antiseptics,20.0,318,6360.0,January,2018,Morris Garcia,Tracy Banks,Bravo,Low
Prohaska-Kuhic ,Mills Inc Pharma Plc,Bydgoszcz,Poland,53.1167,18.0,Hospital,Private,Magneprex,Antimalarial,6.0,187,1122.0,January,2018,Anne Wu,Britanny Bold,Delta,Low
Cassin  ,"Moen, Murazik and Smith ",Siedlce,Poland,52.1833,22.2833,Pharmacy,Retail,Alimmethate Insudase,Analgesics,6.0,624,3744.0,January,2018,Morris Garcia,Tracy Banks,Bravo,Low
Schuppe Inc ,Zemlak Group Pharmaceutical Limited,Koszalin,Poland,54.1903,16.1817,Hospital,Private,Clinolan Pitoletra,Mood Stabilizers,1.0,130,130.0,January,2018,Jessica Smith,Britanny Bold,Delta,Low
Gottlieb-Cruickshank  ,Barton Ltd Pharma Plc,Czeladź,Poland,50.3333,19.0833,Hospital,Private,Interfedox Pilobamol,Antiseptics,2.0,41,82.0,January,2018,Anne Wu,Britanny Bold,Delta,Low
Gottlieb-Cruickshank  ,Vandervort LLC Pharma Plc,Łańcut,Poland,50.0687,22.2291,Pharmacy,Institution,Adideine,Mood Stabilizers,1.0,678,678.0,January,2018,Erica Jones,James Goodwill,Alfa,Low
Cassin  ,Haley PLC Pharmaceutical Limited,Opole,Poland,50.6722,17.9253,Pharmacy,Retail,Exotropin Empizine,Mood Stabilizers,30.0,785,23550.0,January,2018,Thompson Crawford,James Goodwill,Alfa,Medium
Smith Inc ,"Hills, Stroman and Ernser Pharm",Pułtusk,Poland,52.7025,21.0828,Hospital,Private,Insozyme,Antiseptics,2.0,655,1310.0,February,2018,Anne Wu,Britanny Bold,Delta,Low
Graham and Sons ,"Romaguera, Moen and Hagenes Pharmaceutical Limited",Sopot,Poland,54.4419,18.5478,Hospital,Private,Aquamycin Lacoran,Analgesics,2000.0,345,690000.0,February,2018,Erica Jones,James Goodwill,Alfa,High
Prohaska-Kuhic ,"Bogan, Jacobs and Kris Pharmacy",Lubartów,Poland,51.4667,22.6,Pharmacy,Institution,Ampinonide,Antimalarial,20.0,248,4960.0,February,2018,Daniel Gates,Alisha Cordwell,Charlie,Low
Gottlieb-Cruickshank  ,Mante-Grady Pharm,Lubaczów,Poland,50.1556,23.123,Pharmacy,Institution,Victomine,Antimalarial,5.0,705,3525.0,February,2018,Jessica Smith,Britanny Bold,Delta,Low
Gottlieb-Cruickshank  ,Bayer LLC Pharmaceutical Ltd,Bytów,Poland,54.1667,17.5,Hospital,Private,Apromin,Antiseptics,6.0,375,2250.0,February,2018,Abigail Thompson,Tracy Banks,Bravo,Low
Beier  ,Mills Inc Pharma Plc,Bydgoszcz,Poland,53.1167,18.0,Hospital,Private,Magneprex,Antimalarial,960.0,187,179520.0,February,2018,Erica Jones,James Goodwill,Alfa,High
Gottlieb-Cruickshank  ,"Haag, Bradtke and Terry Pharmacy",Biała Podlaska,Poland,52.0333,23.1167,Hospital,Government,Effigine Propraprex,Antimalarial,300.0,377,113100.0,February,2018,Mary Gerrard,Britanny Bold,Delta,High
Gottlieb-Cruickshank  ,Spencer-Jerde Pharmacy,Przeworsk,Poland,50.0591,22.4941,Pharmacy,Institution,Magneprex,Antimalarial,10.0,187,1870.0,February,2018,Daniel Gates,Alisha Cordwell,Charlie,Low
Schuppe Inc ,Monahan Ltd ,Oświęcim,Poland,50.0333,19.2333,Hospital,Government,Nevanide Actozide,Antibiotics,150.0,773,115950.0,February,2018,Stella Given,Alisha Cordwell,Charlie,High
Prohaska-Kuhic ,Purdy Ltd Pharmaceutical Limited,Głuchołazy,Poland,50.3131,17.3742,Hospital,Government,Tesnorphine Silotamine,Antibiotics,5.0,319,1595.0,February,2018,Daniel Gates,Alisha Cordwell,Charlie,Low
Smith Inc ,D'Amore and Sons ,Wągrowiec,Poland,52.8,17.2,Hospital,Private,Microroban Afatigomar,Antimalarial,5.0,478,2390.0,February,2018,Erica Jones,James Goodwill,Alfa,Low
Gottlieb-Cruickshank  ,Torp-Fisher Pharma Plc,Gorlice,Poland,49.6556,21.1604,Hospital,Government,Lactubucil,Antipiretics,3.0,585,1755.0,February,2018,Steve Pepple,Tracy Banks,Bravo,Low
Gottlieb-Cruickshank  ,Ondricka Ltd Pharmacy,Świnoujście,Poland,53.9167,14.25,Hospital,Government,Darlofen,Antipiretics,20.0,577,11540.0,February,2018,Anne Wu,Britanny Bold,Delta,Medium
Gottlieb-Cruickshank  ,Lesch PLC Pharmacy,Wrocław,Poland,51.1077,17.0353,Hospital,Private,Adideine,Mood Stabilizers,5.0,678,3390.0,February,2018,Steve Pepple,Tracy Banks,Bravo,Low
Gottlieb-Cruickshank  ,Streich PLC Pharmaceutical Limited,Przemyśl,Poland,49.785,22.7673,Pharmacy,Institution,Thalilamide,Antibiotics,1.0,615,615.0,February,2018,Steve Pepple,Tracy Banks,Bravo,Low
Gottlieb-Cruickshank  ,"Steuber, Skiles and Kilback Pharma Plc",Sosnowiec,Poland,50.3,19.1667,Pharmacy,Retail,Albuterenone,Antimalarial,15.0,82,1230.0,February,2018,Morris Garcia,Tracy Banks,Bravo,Low
Gottlieb-Cruickshank  ,Feest-Roob Pharmaceutical Ltd,Wolsztyn,Poland,52.1167,16.1167,Pharmacy,Institution,Diprotaine,Antiseptics,2.0,318,636.0,February,2018,Sheila Stones,Britanny Bold,Delta,Low
Cassin  ,Crist Inc ,Stary Sącz,Poland,49.5625,20.6364,Hospital,Private,Ciclonazol,Antiseptics,20.0,121,2420.0,February,2018,Thompson Crawford,James Goodwill,Alfa,Low
Gottlieb-Cruickshank  ,Miller-Satterfield Pharma Plc,Nidzica,Poland,53.3583,20.425,Hospital,Private,Arivac,Antimalarial,4.0,567,2268.0,February,2018,Sheila Stones,Britanny Bold,Delta,Low
Smith Inc ,"Romaguera, Moen and Hagenes Pharmaceutical Limited",Sopot,Poland,54.4419,18.5478,Hospital,Private,Belavarix Benzabicin,Antibiotics,6.0,131,786.0,February,2018,Thompson Crawford,James Goodwill,Alfa,Low
Prohaska-Kuhic ,"Zieme, Doyle and Kunze ",Lublin,Poland,51.2333,22.5667,Hospital,Private,Propratecan,Antimalarial,30.0,682,20460.0,February,2018,Abigail Thompson,Tracy Banks,Bravo,Medium
Smith Inc ,Rohan PLC Pharmaceutical Limited,Krynica,Poland,49.4222,20.9594,Pharmacy,Retail,Exotropin Empizine,Mood Stabilizers,20.0,785,15700.0,February,2018,Mary Gerrard,Britanny Bold,Delta,Medium
Prohaska-Kuhic ,Hartmann-Wolf ,Trzebnica,Poland,51.305,17.0614,Hospital,Government,Nisorase,Antibiotics,10.0,393,3930.0,February,2018,Jessica Smith,Britanny Bold,Delta,Low
Rohan   ,"Casper, Hyatt and Jakubowski Pharmaceutical Limited",Otwock,Poland,52.1167,21.2667,Hospital,Government,Cortirodine Alimcline,Antipiretics,20.0,128,2560.0,February,2018,Abigail Thompson,Tracy Banks,Bravo,Low
Prohaska-Kuhic ,"Lebsack, Yost and Heller Pharmaceutical Limited",Wieliczka,Poland,49.9894,20.0661,Pharmacy,Institution,Antaparin Varizyme,Mood Stabilizers,3.0,513,1539.0,February,2018,Jessica Smith,Britanny Bold,Delta,Low
Smith Inc ,"Schmitt, Berge and Haley Pharma Plc",Kłodzko,Poland,50.4378,16.6528,Hospital,Private,Enzastryl,Antiseptics,4.0,26,104.0,February,2018,Abigail Thompson,Tracy Banks,Bravo,Low
Prohaska-Kuhic ,"Harris, Daugherty and Okuneva Pharma Plc",Krotoszyn,Poland,51.697,17.4357,Pharmacy,Retail,Docstryl Rivacin,Antiseptics,10.0,789,7890.0,February,2018,Thompson Crawford,James Goodwill,Alfa,Low
Gottlieb-Cruickshank  ,Kutch-Marks Pharm,Chełm,Poland,51.1333,23.4833,Hospital,Private,Dexmeprazole Transnuvia,Mood Stabilizers,20.0,180,3600.0,February,2018,Steve Pepple,Tracy Banks,Bravo,Low
Smith Inc ,Emard-O'Connell Pharmacy,Zakopane,Poland,49.2994,19.9519,Pharmacy,Retail,Primapion,Antibiotics,1.0,492,492.0,February,2018,Jessica Smith,Britanny Bold,Delta,Low
Smith Inc ,"Schowalter, Runolfsson and VonRueden Pharmaceutical Ltd",Grudziądz,Poland,53.4925,18.7761,Pharmacy,Retail,Duraprazole Agalsixolol,Antiseptics,5.0,375,1875.0,February,2018,Mary Gerrard,Britanny Bold,Delta,Low
Gottlieb-Cruickshank  ,Boyer and Sons Pharmaceutical Limited,Wałcz,Poland,53.2667,16.4667,Hospital,Government,Amavirase,Antipiretics,20.0,487,9740.0,February,2018,Jimmy Grey,Alisha Cordwell,Charlie,Medium
Prohaska-Kuhic ,"Kshlerin, Ryan and Leuschke Pharma Plc",Zielona Góra,Poland,51.9397,15.505,Hospital,Government,Bexridol,Antipiretics,1.0,80,80.0,February,2018,Daniel Gates,Alisha Cordwell,Charlie,Low
Beier  ,Raynor-Graham Pharmaceutical Limited,Gorzów Wielkopolski,Poland,52.7333,15.25,Pharmacy,Institution,Symbitrim,Analgesics,10.0,536,5360.0,February,2018,Mary Gerrard,Britanny Bold,Delta,Low
Gottlieb-Cruickshank  ,Purdy Ltd Pharmaceutical Limited,Głuchołazy,Poland,50.3131,17.3742,Hospital,Government,Interzide,Antimalarial,2.0,420,840.0,February,2018,Mary Gerrard,Britanny Bold,Delta,Low
Cassin  ,Spencer-Jerde Pharmacy,Przeworsk,Poland,50.0591,22.4941,Pharmacy,Institution,Ribabyclor,Antiseptics,20.0,469,9380.0,February,2018,Jimmy Grey,Alisha Cordwell,Charlie,Medium
Smith Inc ,"Hills, Stroman and Ernser Pharm",Pułtusk,Poland,52.7025,21.0828,Hospital,Private,Ergomethate,Mood Stabilizers,10.0,604,6040.0,February,2018,Erica Jones,James Goodwill,Alfa,Low
Gottlieb-Cruickshank  ,"Gleichner, Bahringer and Morar Pharma Plc",Gostynin,Poland,52.4167,19.4667,Hospital,Private,Benzoprox,Antiseptics,120.0,284,34080.0,February,2018,Thompson Crawford,James Goodwill,Alfa,High
Gottlieb-Cruickshank  ,Schaden-Hirthe Pharmaceutical Ltd,Świdnica,Poland,50.8438,16.4886,Pharmacy,Institution,Robapril,Antipiretics,3.0,453,1359.0,February,2018,Jessica Smith,Britanny Bold,Delta,Low
Prohaska-Kuhic ,Heller-Abernathy ,Brzeg Dolny,Poland,51.273,16.7081,Hospital,Private,Ibruferon,Antiseptics,10.0,82,820.0,February,2018,Jimmy Grey,Alisha Cordwell,Charlie,Low
Gottlieb-Cruickshank  ,Pfeffer-Hodkiewicz Pharmaceutical Ltd,Szczytno,Poland,53.5628,20.9853,Hospital,Government,Acubulin,Antipiretics,20.0,490,9800.0,February,2018,Alan Ray,James Goodwill,Alfa,Medium
Prohaska-Kuhic ,Waelchi LLC Pharmacy,Katowice,Poland,50.25,19.0,Hospital,Government,Symdocet,Antipiretics,30.0,470,14100.0,February,2018,Abigail Thompson,Tracy Banks,Bravo,Medium
Prohaska-Kuhic ,"McClure, Zemlak and Dibbert Pharmaceutical Limited",Kórnik,Poland,52.2367,17.0986,Hospital,Private,Clindaracil,Analgesics,288.0,173,49824.0,February,2018,Erica Jones,James Goodwill,Alfa,High
Prohaska-Kuhic ,Feest PLC ,Świecie,Poland,53.4167,18.4333,Pharmacy,Retail,Palodizem,Mood Stabilizers,1.0,201,201.0,February,2018,Jimmy Grey,Alisha Cordwell,Charlie,Low
Smith Inc ,Stehr-Champlin Pharmaceutical Limited,Nowe Miasto Lubawskie,Poland,53.4167,19.5833,Hospital,Government,Temasone Thiobucil,Antimalarial,10.0,482,4820.0,February,2018,Steve Pepple,Tracy Banks,Bravo,Low
Smith Inc ,Mante-Grady Pharm,Lubaczów,Poland,50.1556,23.123,Pharmacy,Institution,Acantaine,Antibiotics,40.0,66,2640.0,February,2018,Erica Jones,James Goodwill,Alfa,Low
Prohaska-Kuhic ,Funk and Sons Pharmaceutical Limited,Tarnobrzeg,Poland,50.5833,21.6833,Pharmacy,Retail,Nevanide Actozide,Antibiotics,20.0,773,15460.0,February,2018,Anne Wu,Britanny Bold,Delta,Medium
Gottlieb-Cruickshank  ,"Schinner, Gaylord and Treutel Pharmaceutical Ltd",Dąbrowa Górnicza,Poland,50.3239,19.1947,Hospital,Government,Choriotrisin,Antibiotics,4.0,591,2364.0,February,2018,Morris Garcia,Tracy Banks,Bravo,Low
Prohaska-Kuhic ,Crona PLC Pharma Plc,Białogard,Poland,54.007,15.9875,Hospital,Private,Hepavice,Mood Stabilizers,2.0,140,280.0,February,2018,Daniel Gates,Alisha Cordwell,Charlie,Low
Gottlieb-Cruickshank  ,"Harris, Daugherty and Okuneva Pharma Plc",Krotoszyn,Poland,51.697,17.4357,Pharmacy,Retail,Primapion,Antibiotics,2.0,492,984.0,February,2018,Daniel Gates,Alisha Cordwell,Charlie,Low
Smith Inc ,Kutch-Marks Pharm,Chełm,Poland,51.1333,23.4833,Hospital,Private,Decidenu Galantrigine,Antipiretics,24.0,590,14160.0,February,2018,Mary Gerrard,Britanny Bold,Delta,Medium
Smith Inc ,Balistreri-Watsica Pharmacy,Ełk,Poland,53.8167,22.35,Pharmacy,Retail,Aquamycin Lacoran,Analgesics,30.0,345,10350.0,February,2018,Thompson Crawford,James Goodwill,Alfa,Medium
Smith Inc ,"Rosenbaum, Klein and Herzog ",Zbąszyń,Poland,52.2531,15.9178,Hospital,Private,Neuropogen Empibax,Analgesics,5.0,605,3025.0,February,2018,Anne Wu,Britanny Bold,Delta,Low
Gottlieb-Cruickshank  ,Monahan Ltd ,Oświęcim,Poland,50.0333,19.2333,Hospital,Government,Cogxone Levanide,Antimalarial,1.0,686,686.0,February,2018,Sheila Stones,Britanny Bold,Delta,Low
Gottlieb-Cruickshank  ,Welch-Orn ,Chełmno,Poland,53.3492,18.4261,Hospital,Private,Afluferon Entrarenone,Antimalarial,20.0,104,2080.0,February,2018,Sheila Stones,Britanny Bold,Delta,Low
Gottlieb-Cruickshank  ,Kuhic LLC Pharma Plc,Oborniki,Poland,52.65,16.8167,Pharmacy,Retail,Penitrana,Analgesics,2.0,179,358.0,February,2018,Alan Ray,James Goodwill,Alfa,Low
Gottlieb-Cruickshank  ,"Buckridge, Hand and Hyatt Pharma Plc",Zgorzelec,Poland,51.1528,15.0,Pharmacy,Institution,Halciramine,Antimalarial,2.0,409,818.0,February,2018,Jimmy Grey,Alisha Cordwell,Charlie,Low
Graham and Sons ,Kreiger Inc Pharma Plc,Mielec,Poland,50.2833,21.4333,Hospital,Private,Syntheruvax Proracin,Antimalarial,216.0,86,18576.0,February,2018,Jimmy Grey,Alisha Cordwell,Charlie,Medium
Smith Inc ,"Ondricka, Rosenbaum and Beahan ",Starogard Gdański,Poland,53.9667,18.5333,Hospital,Government,Biotasol Siloderm,Antiseptics,36.0,373,13428.0,February,2018,Steve Pepple,Tracy Banks,Bravo,Medium
Gottlieb-Cruickshank  ,Rohan Inc ,Chojnów,Poland,51.2667,15.9333,Pharmacy,Institution,Comzyme,Antibiotics,25.0,114,2850.0,February,2018,Jimmy Grey,Alisha Cordwell,Charlie,Low
Gottlieb-Cruickshank  ,"Hansen, Fadel and Schroeder Pharm",Gniezno,Poland,52.5333,17.6,Pharmacy,Retail,Kinerinex,Antiseptics,20.0,647,12940.0,February,2018,Morris Garcia,Tracy Banks,Bravo,Medium
Prohaska-Kuhic ,"Upton, Abernathy and Goodwin Pharmaceutical Ltd",Jarosław,Poland,50.0162,22.677799999999994,Hospital,Government,Penitrana,Analgesics,1.0,179,179.0,February,2018,Erica Jones,James Goodwill,Alfa,Low
Prohaska-Kuhic ,Veum-Kerluke Pharmacy,Człuchów,Poland,53.65,17.3667,Pharmacy,Retail,Rebedase Aplencor,Mood Stabilizers,2.0,180,360.0,February,2018,Mary Gerrard,Britanny Bold,Delta,Low
Prohaska-Kuhic ,"Funk, Ratke and Heaney Pharmacy",Prabuty,Poland,53.7558,19.1975,Hospital,Government,Aldevac,Analgesics,60.0,26,1560.0,February,2018,Steve Pepple,Tracy Banks,Bravo,Low
Gottlieb-Cruickshank  ,Mills Inc Pharma Plc,Bydgoszcz,Poland,53.1167,18.0,Hospital,Private,Ergomethate,Mood Stabilizers,2.0,604,1208.0,February,2018,Daniel Gates,Alisha Cordwell,Charlie,Low
Prohaska-Kuhic ,Jakubowski Inc Pharmaceutical Limited,Bolesławiec,Poland,51.2667,15.5667,Pharmacy,Retail,Interfestar,Antibiotics,60.0,62,3720.0,February,2018,Erica Jones,James Goodwill,Alfa,Low
Prohaska-Kuhic ,Feest-Roob Pharmaceutical Ltd,Wolsztyn,Poland,52.1167,16.1167,Pharmacy,Institution,Diprolimus,Antiseptics,20.0,634,12680.0,February,2018,Alan Ray,James Goodwill,Alfa,Medium
Smith Inc ,"Erdman, Senger and Oberbrunner Pharm",Rawa Mazowiecka,Poland,51.7667,20.25,Pharmacy,Retail,Diaxolol,Antiseptics,60.0,765,45900.0,February,2018,Erica Jones,James Goodwill,Alfa,High
Beier  ,Senger-Kirlin Pharmacy,Kobyłka,Poland,52.3395,21.1959,Hospital,Government,Formolovir Amanferon,Analgesics,10.0,191,1910.0,February,2018,Jimmy Grey,Alisha Cordwell,Charlie,Low
Prohaska-Kuhic ,"Denesik, Walter and Beatty Pharma Plc",Ostrów Mazowiecka,Poland,52.8,21.9,Pharmacy,Institution,Invisteride Diclomycin,Mood Stabilizers,24.0,452,10848.0,February,2018,Jessica Smith,Britanny Bold,Delta,Medium
Gottlieb-Cruickshank  ,Nader-Gaylord Pharmaceutical Limited,Sobótka,Poland,50.8986,16.7444,Hospital,Private,Aggrakine,Antiseptics,4.0,47,188.0,February,2018,Stella Given,Alisha Cordwell,Charlie,Low
Prohaska-Kuhic ,"Blick, Pacocha and Schowalter ",Inowrocław,Poland,52.7958,18.2611,Pharmacy,Retail,Brimorix Amonine,Antibiotics,5.0,398,1990.0,February,2018,Morris Garcia,Tracy Banks,Bravo,Low
Gottlieb-Cruickshank  ,Steuber Ltd Pharmacy,Ostrołęka,Poland,53.0833,21.5667,Hospital,Private,Oxymotroban Fexoformin,Analgesics,3.0,458,1374.0,February,2018,Steve Pepple,Tracy Banks,Bravo,Low
Prohaska-Kuhic ,"Crist, Wisoky and Nolan Pharmaceutical Ltd",Toruń,Poland,53.0167,18.6167,Pharmacy,Retail,Alisteride Pemidizem,Antiseptics,2.0,35,70.0,February,2018,Erica Jones,James Goodwill,Alfa,Low
Gottlieb-Cruickshank  ,Schaden-Hirthe Pharmaceutical Ltd,Świdnica,Poland,50.8438,16.4886,Pharmacy,Institution,Microroban Afatigomar,Antimalarial,4.0,478,1912.0,February,2018,Anne Wu,Britanny Bold,Delta,Low
Smith Inc ,"Upton, Abernathy and Goodwin Pharmaceutical Ltd",Jarosław,Poland,50.0162,22.6778,Hospital,Government,Zonixamine Immulinum,Analgesics,20.0,298,5960.0,February,2018,Stella Given,Alisha Cordwell,Charlie,Low
Smith Inc ,"Hirthe, Williamson and Macejkovic Pharma Plc",Brzeg,Poland,50.8667,17.4833,Hospital,Government,Symdocet,Antipiretics,4.0,470,1880.0,February,2018,Mary Gerrard,Britanny Bold,Delta,Low
Gottlieb-Cruickshank  ,Lemke Ltd Pharm,Tarnów,Poland,50.0125,20.9883,Hospital,Private,Fentatrol Rapatelase,Antibiotics,2.0,458,916.0,February,2018,Sheila Stones,Britanny Bold,Delta,Low
Smith Inc ,Rutherford and Sons ,Gdynia,Poland,54.5189,18.5319,Pharmacy,Retail,Fentatrol Rapatelase,Antibiotics,36.0,458,16488.0,February,2018,Daniel Gates,Alisha Cordwell,Charlie,Medium
Prohaska-Kuhic ,"Johnson, Friesen and Torphy Pharma Plc",Gryfino,Poland,53.2524,14.4883,Hospital,Government,Rositroban,Mood Stabilizers,5.0,481,2405.0,February,2018,Stella Given,Alisha Cordwell,Charlie,Low
Prohaska-Kuhic ,Torp-Fisher Pharma Plc,Gorlice,Poland,49.6556,21.1604,Hospital,Government,Lansopril Acribax,Antipiretics,6.0,492,2952.0,March,2018,Daniel Gates,Alisha Cordwell,Charlie,Low
Smith Inc ,Feest PLC ,Świecie,Poland,53.4167,18.4333,Pharmacy,Retail,Afaxacin,Analgesics,1.0,60,60.0,March,2018,Erica Jones,James Goodwill,Alfa,Low
Beier  ,Powlowski-Buckridge Pharma Plc,Ustka,Poland,54.5805,16.8619,Hospital,Private,Propratecan,Antimalarial,5.0,682,3410.0,March,2018,Abigail Thompson,Tracy Banks,Bravo,Low
Gottlieb-Cruickshank  ,Hermiston and Sons Pharma Plc,Bochnia,Poland,49.9833,20.4333,Pharmacy,Institution,Insozyme,Antiseptics,5.0,655,3275.0,March,2018,Mary Gerrard,Britanny Bold,Delta,Low
Beier  ,Will and Sons Pharmaceutical Limited,Poznań,Poland,52.4,16.9167,Hospital,Government,Paronium Atracustone,Analgesics,12.0,414,4968.0,March,2018,Stella Given,Alisha Cordwell,Charlie,Low
Smith Inc ,"Leuschke, Waters and Schowalter Pharmaceutical Ltd",Krapkowice,Poland,50.4751,17.9654,Pharmacy,Institution,Ciclonazol,Antiseptics,90.0,121,10890.0,March,2018,Alan Ray,James Goodwill,Alfa,Medium
Smith Inc ,"Nitzsche, Effertz and Maggio Pharmacy",Malbork,Poland,54.0285,19.0444,Hospital,Private,Claricriptine Adaferol,Antibiotics,880.0,33,29040.0,March,2018,Stella Given,Alisha Cordwell,Charlie,High
Smith Inc ,"Upton, Abernathy and Goodwin Pharmaceutical Ltd",Jarosław,Poland,50.0162,22.6778,Hospital,Government,Duraprazole Agalsixolol,Antiseptics,4.0,375,1500.0,March,2018,Mary Gerrard,Britanny Bold,Delta,Low
Gottlieb-Cruickshank  ,Streich PLC Pharmaceutical Limited,Przemyśl,Poland,49.785,22.7673,Pharmacy,Institution,Acycnafine Microvate,Mood Stabilizers,432.0,658,284256.0,March,2018,Thompson Crawford,James Goodwill,Alfa,High
Smith Inc ,"Casper, Hyatt and Jakubowski Pharmaceutical Limited",Otwock,Poland,52.1167,21.2667,Hospital,Government,Proprabax,Analgesics,180.0,64,11520.0,March,2018,Steve Pepple,Tracy Banks,Bravo,Medium
Cassin  ,"Effertz, Heaney and Tillman Pharmaceutical Ltd",Jaworzno,Poland,50.2,19.275,Hospital,Government,Betanem,Analgesics,30.0,611,18330.0,March,2018,Anne Wu,Britanny Bold,Delta,Medium
Smith Inc ,Yundt-Crona Pharmaceutical Ltd,Siemiatycze,Poland,52.4272,22.8625,Hospital,Private,Antilamin Clinbital,Antibiotics,10.0,664,6640.0,March,2018,Thompson Crawford,James Goodwill,Alfa,Low
Cassin  ,Keeling LLC Pharmacy,Olsztyn,Poland,53.78,20.4942,Pharmacy,Retail,Temasone Thiobucil,Antimalarial,20.0,482,9640.0,March,2018,Jimmy Grey,Alisha Cordwell,Charlie,Medium
Prohaska-Kuhic ,Kozey Ltd Pharmaceutical Ltd,Bielsk Podlaski,Poland,52.7667,23.2,Hospital,Government,Topitaine,Mood Stabilizers,10.0,517,5170.0,March,2018,Alan Ray,James Goodwill,Alfa,Low
Prohaska-Kuhic ,Lemke Ltd Pharm,Tarnów,Poland,50.0125,20.9883,Hospital,Private,Victomax,Analgesics,20.0,623,12460.0,March,2018,Sheila Stones,Britanny Bold,Delta,Medium
Gottlieb-Cruickshank  ,Lockman Ltd ,Połaniec,Poland,50.4333,21.2833,Pharmacy,Institution,Adalatamine,Antiseptics,3.0,794,2382.0,March,2018,Daniel Gates,Alisha Cordwell,Charlie,Low
Gottlieb-Cruickshank  ,Lockman Ltd ,Połaniec,Poland,50.4333,21.2833,Pharmacy,Institution,Ribabyclor,Antiseptics,4.0,469,1876.0,March,2018,Jimmy Grey,Alisha Cordwell,Charlie,Low
Prohaska-Kuhic ,West Group Pharmacy,Kluczbork,Poland,50.9833,18.2167,Hospital,Government,Penitrana,Analgesics,1.0,179,179.0,March,2018,Morris Garcia,Tracy Banks,Bravo,Low
Gottlieb-Cruickshank  ,Reilly Ltd ,Mława,Poland,53.1167,20.3667,Pharmacy,Retail,Clindaracil,Analgesics,6.0,173,1038.0,March,2018,Anne Wu,Britanny Bold,Delta,Low
Gottlieb-Cruickshank  ,Spencer-Jerde Pharmacy,Przeworsk,Poland,50.0591,22.4941,Pharmacy,Institution,Proprabax,Analgesics,5.0,64,320.0,March,2018,Steve Pepple,Tracy Banks,Bravo,Low
Gottlieb-Cruickshank  ,"Denesik, Walter and Beatty Pharma Plc",Ostrów Mazowiecka,Poland,52.8,21.9,Pharmacy,Institution,Allomenda,Antipiretics,20.0,487,9740.0,March,2018,Alan Ray,James Goodwill,Alfa,Medium
Smith Inc ,Trantow LLC Pharma Plc,Braniewo,Poland,54.3833,19.8333,Pharmacy,Retail,Pulmodiol Adalaxime,Analgesics,10.0,605,6050.0,March,2018,Jessica Smith,Britanny Bold,Delta,Low
Gottlieb-Cruickshank  ,Koss Ltd Pharmaceutical Limited,Lwówek Śląski,Poland,51.1167,15.5833,Hospital,Private,Aciprex,Antipiretics,2.0,421,842.0,March,2018,Sheila Stones,Britanny Bold,Delta,Low
Prohaska-Kuhic ,Bartoletti-Altenwerth ,Police,Poland,53.55,14.5708,Hospital,Government,Aggrakine,Antiseptics,12.0,47,564.0,March,2018,Erica Jones,James Goodwill,Alfa,Low
Gottlieb-Cruickshank  ,Mann-Waelchi Pharm,Piotrków Trybunalski,Poland,51.4,19.6833,Hospital,Private,Pentastrin,Antibiotics,10.0,497,4970.0,March,2018,Steve Pepple,Tracy Banks,Bravo,Low
Gottlieb-Cruickshank  ,Cassin PLC Pharmacy,Miastko,Poland,54.0,16.9833,Hospital,Private,Ganineva Agenium,Antiseptics,36.0,390,14040.0,March,2018,Jimmy Grey,Alisha Cordwell,Charlie,Medium
Smith Inc ,"McClure, Zemlak and Dibbert Pharmaceutical Limited",Kórnik,Poland,52.2367,17.0986,Hospital,Private,Propratecan,Antimalarial,5.0,682,3410.0,March,2018,Stella Given,Alisha Cordwell,Charlie,Low
Gottlieb-Cruickshank  ,Cassin PLC Pharmacy,Miastko,Poland,54.0,16.9833,Hospital,Private,Menogine,Antiseptics,5.0,742,3710.0,March,2018,Daniel Gates,Alisha Cordwell,Charlie,Low
Smith Inc ,"Ondricka, Rosenbaum and Beahan ",Starogard Gdański,Poland,53.9667,18.5333,Hospital,Government,Allomenda,Antipiretics,2.0,487,974.0,March,2018,Morris Garcia,Tracy Banks,Bravo,Low
Prohaska-Kuhic ,Jakubowski Inc Pharmaceutical Limited,Bolesławiec,Poland,51.2667,15.5667,Pharmacy,Retail,Thionide,Analgesics,5.0,113,565.0,March,2018,Jimmy Grey,Alisha Cordwell,Charlie,Low
Gottlieb-Cruickshank  ,"Kub, Von and Herzog Pharmacy",Wschowa,Poland,51.8,16.3,Hospital,Private,Topitaine,Mood Stabilizers,12.0,517,6204.0,March,2018,Alan Ray,James Goodwill,Alfa,Low
Prohaska-Kuhic ,Senger-Kirlin Pharmacy,Kobyłka,Poland,52.3395,21.1959,Hospital,Government,Claripenem,Antibiotics,4.0,448,1792.0,March,2018,Jimmy Grey,Alisha Cordwell,Charlie,Low
Gottlieb-Cruickshank  ,Hayes-Kilback Pharmaceutical Ltd,Żary,Poland,51.6333,15.1333,Pharmacy,Retail,Pulmogen Alitora,Antiseptics,4.0,647,2588.0,March,2018,Thompson Crawford,James Goodwill,Alfa,Low
Smith Inc ,Buckridge-Strosin Pharmaceutical Limited,Pruszków,Poland,52.1667,20.8,Hospital,Government,Trazobalamin,Mood Stabilizers,20.0,762,15240.0,March,2018,Mary Gerrard,Britanny Bold,Delta,Medium
Gottlieb-Cruickshank  ,Miller-Satterfield Pharma Plc,Nidzica,Poland,53.3583,20.425,Hospital,Private,Dantolac Pazocor,Analgesics,1.0,578,578.0,March,2018,Steve Pepple,Tracy Banks,Bravo,Low
Prohaska-Kuhic ,Herman-Koss Pharm,Lubsko,Poland,51.7877,14.9724,Hospital,Private,Sodinel Olofribrate,Antimalarial,6.0,50,300.0,March,2018,Anne Wu,Britanny Bold,Delta,Low
Gottlieb-Cruickshank  ,Schmitt LLC Pharm,Nysa,Poland,50.4738,17.3344,Pharmacy,Retail,Eproline,Antibiotics,10.0,780,7800.0,March,2018,Stella Given,Alisha Cordwell,Charlie,Low
Smith Inc ,Emard-O'Connell Pharmacy,Zakopane,Poland,49.2994,19.9519,Pharmacy,Retail,Aciprex,Antipiretics,79.0,421,33259.0,March,2018,Erica Jones,James Goodwill,Alfa,High
Prohaska-Kuhic ,Rowe PLC Pharmaceutical Ltd,Kęty,Poland,49.8821,19.2233,Pharmacy,Institution,Lovapur,Mood Stabilizers,5.0,551,2755.0,March,2018,Jessica Smith,Britanny Bold,Delta,Low
Beier  ,Carter-Conn Pharma Plc,Brwinów,Poland,52.1417,20.7167,Hospital,Private,Lacoplex Hyaluvance,Mood Stabilizers,72.0,334,24048.0,March,2018,Steve Pepple,Tracy Banks,Bravo,High
Smith Inc ,"Funk, Ratke and Heaney Pharmacy",Prabuty,Poland,53.7558,19.1975,Hospital,Government,Fosinofen,Antipiretics,10.0,385,3850.0,March,2018,Jimmy Grey,Alisha Cordwell,Charlie,Low
Beier  ,Bashirian-Kassulke Pharma Plc,Kraków,Poland,50.0614,19.9372,Hospital,Private,Zarostral,Antipiretics,180.0,141,25380.0,March,2018,Alan Ray,James Goodwill,Alfa,High
Smith Inc ,Crist Inc ,Stary Sącz,Poland,49.5625,20.6364,Hospital,Private,Symbitrim,Analgesics,300.0,536,160800.0,March,2018,Stella Given,Alisha Cordwell,Charlie,High
Rohan   ,Schimmel-Waelchi Pharmaceutical Ltd,Grodzisk Mazowiecki,Poland,52.1039,20.6337,Hospital,Government,Lovavatol Azelavarix,Mood Stabilizers,10.0,106,1060.0,March,2018,Jimmy Grey,Alisha Cordwell,Charlie,Low
Smith Inc ,Gerlach LLC ,Krzeszowice,Poland,50.1333,19.6333,Hospital,Government,Zyvance,Analgesics,432.0,323,139536.0,March,2018,Jessica Smith,Britanny Bold,Delta,High
Gottlieb-Cruickshank  ,Abernathy Group Pharmaceutical Limited,Brzesko,Poland,49.9667,20.6167,Hospital,Government,Atomorelin,Analgesics,20.0,555,11100.0,March,2018,Steve Pepple,Tracy Banks,Bravo,Medium
Gottlieb-Cruickshank  ,Bosco-Marquardt Pharm,Lębork,Poland,54.55,17.75,Hospital,Private,Factofribrate,Mood Stabilizers,5.0,99,495.0,March,2018,Anne Wu,Britanny Bold,Delta,Low
Smith Inc ,Koss Ltd Pharmaceutical Limited,Lwówek Śląski,Poland,51.1167,15.5833,Hospital,Private,Presetron,Mood Stabilizers,100.0,216,21600.0,March,2018,Sheila Stones,Britanny Bold,Delta,Medium
Prohaska-Kuhic ,Stanton-Cole ,Skierniewice,Poland,51.9528,20.1417,Hospital,Private,Immurenol Temarate,Antipiretics,40.0,303,12120.0,March,2018,Jessica Smith,Britanny Bold,Delta,Medium
Gottlieb-Cruickshank  ,McCullough LLC Pharma Plc,Częstochowa,Poland,50.8,19.1167,Pharmacy,Retail,Kinovatol,Analgesics,2.0,370,740.0,March,2018,Stella Given,Alisha Cordwell,Charlie,Low
Smith Inc ,Yundt-Crona Pharmaceutical Ltd,Siemiatycze,Poland,52.4272,22.8625,Hospital,Private,Victomine,Antimalarial,1.0,705,705.0,March,2018,Daniel Gates,Alisha Cordwell,Charlie,Low
Prohaska-Kuhic ,Feest-Kshlerin Pharmaceutical Ltd,Świdnik,Poland,51.2333,22.7,Pharmacy,Institution,Alemtuvatol Megalinum,Analgesics,6.0,682,4092.0,March,2018,Abigail Thompson,Tracy Banks,Bravo,Low
Gottlieb-Cruickshank  ,Hermiston LLC ,Strzegom,Poland,51.0,16.3333,Pharmacy,Institution,Exotropin Empizine,Mood Stabilizers,6.0,785,4710.0,March,2018,Daniel Gates,Alisha Cordwell,Charlie,Low
Gottlieb-Cruickshank  ,"Upton, Abernathy and Goodwin Pharmaceutical Ltd",Jarosław,Poland,50.0162,22.6778,Hospital,Government,Aggrakine,Antiseptics,7.0,47,329.0,March,2018,Anne Wu,Britanny Bold,Delta,Low
Smith Inc ,"Schowalter, Runolfsson and VonRueden Pharmaceutical Ltd",Grudziądz,Poland,53.4925,18.7761,Pharmacy,Retail,Lovepion,Antiseptics,20.0,544,10880.0,March,2018,Jimmy Grey,Alisha Cordwell,Charlie,Medium
Smith Inc ,Koss-Beier ,Nakło nad Notecią,Poland,53.1421,17.6018,Pharmacy,Retail,Acycpex,Mood Stabilizers,30.0,510,15300.0,March,2018,Erica Jones,James Goodwill,Alfa,Medium
Beier  ,Will and Sons Pharmaceutical Limited,Poznań,Poland,52.4,16.9167,Hospital,Government,Malaxolol Aeroprosyn,Antiseptics,10.0,502,5020.0,March,2018,Steve Pepple,Tracy Banks,Bravo,Low
Gottlieb-Cruickshank  ,"Kub, Von and Herzog Pharmacy",Wschowa,Poland,51.8,16.3,Hospital,Private,Megenorphine,Antimalarial,6.0,402,2412.0,March,2018,Thompson Crawford,James Goodwill,Alfa,Low
Smith Inc ,Hermiston and Sons Pharma Plc,Bochnia,Poland,49.9833,20.4333,Pharmacy,Institution,Relenvice,Antimalarial,20.0,459,9180.0,March,2018,Jessica Smith,Britanny Bold,Delta,Medium
Gottlieb-Cruickshank  ,Koss Ltd Pharmaceutical Limited,Lwówek Śląski,Poland,51.1167,15.5833,Hospital,Private,Betanem,Analgesics,4.0,611,2444.0,March,2018,Steve Pepple,Tracy Banks,Bravo,Low
Gottlieb-Cruickshank  ,Walsh-Brown Pharmacy,Chorzów,Poland,50.3,18.95,Pharmacy,Retail,Cyclovital,Antimalarial,10.0,677,6770.0,March,2018,Morris Garcia,Tracy Banks,Bravo,Low
Gottlieb-Cruickshank  ,Kozey Ltd Pharmaceutical Ltd,Bielsk Podlaski,Poland,52.7667,23.2,Hospital,Government,Lovapur,Mood Stabilizers,4.0,551,2204.0,March,2018,Morris Garcia,Tracy Banks,Bravo,Low
Smith Inc ,Lemke Ltd Pharm,Tarnów,Poland,50.0125,20.9883,Hospital,Private,Halcifergen Nevazone,Antimalarial,120.0,710,85200.0,March,2018,Jessica Smith,Britanny Bold,Delta,High
Gottlieb-Cruickshank  ,Kutch-Marks Pharm,Chełm,Poland,51.1333,23.4833,Hospital,Private,Magnemunex,Antiseptics,24.0,689,16536.0,March,2018,Morris Garcia,Tracy Banks,Bravo,Medium
Gottlieb-Cruickshank  ,Koss Ltd Pharmaceutical Limited,Lwówek Śląski,Poland,51.1167,15.5833,Hospital,Private,Ribabyclor,Antiseptics,30.0,469,14070.0,March,2018,Stella Given,Alisha Cordwell,Charlie,Medium
Smith Inc ,"Rosenbaum, Klein and Herzog ",Zbąszyń,Poland,52.2531,15.9178,Hospital,Private,Pitodomide,Antimalarial,1.0,24,24.0,March,2018,Stella Given,Alisha Cordwell,Charlie,Low
Gottlieb-Cruickshank  ,Veum-Kerluke Pharmacy,Człuchów,Poland,53.65,17.3667,Pharmacy,Retail,Diprolimus,Antiseptics,2.0,634,1268.0,March,2018,Morris Garcia,Tracy Banks,Bravo,Low
Smith Inc ,West Group Pharmacy,Kluczbork,Poland,50.9833,18.2167,Hospital,Government,Interfestar,Antibiotics,2.0,62,124.0,March,2018,Abigail Thompson,Tracy Banks,Bravo,Low
Gottlieb-Cruickshank  ,Botsford PLC Pharmacy,Pabianice,Poland,51.6642,19.35,Pharmacy,Institution,Zonixamine Immulinum,Analgesics,12.0,298,3576.0,March,2018,Abigail Thompson,Tracy Banks,Bravo,Low
Gottlieb-Cruickshank  ,Kunze PLC Pharm,Darłowo,Poland,54.4167,16.4167,Hospital,Private,Aclonuma,Antimalarial,2.0,474,948.0,March,2018,Daniel Gates,Alisha Cordwell,Charlie,Low
Gottlieb-Cruickshank  ,Torp-Fisher Pharma Plc,Gorlice,Poland,49.6556,21.1604,Hospital,Government,Tesnorphine Silotamine,Antibiotics,10.0,319,3190.0,March,2018,Stella Given,Alisha Cordwell,Charlie,Low
Gottlieb-Cruickshank  ,"Casper, Hyatt and Jakubowski Pharmaceutical Limited",Otwock,Poland,52.1167,21.2667,Hospital,Government,Lovavatol Azelavarix,Mood Stabilizers,20.0,106,2120.0,March,2018,Daniel Gates,Alisha Cordwell,Charlie,Low
Prohaska-Kuhic ,Bosco-Marquardt Pharm,Lębork,Poland,54.55,17.75,Hospital,Private,Effigine Propraprex,Antimalarial,2.0,377,754.0,March,2018,Thompson Crawford,James Goodwill,Alfa,Low
Gottlieb-Cruickshank  ,Ward Group Pharmaceutical Limited,Zabrze,Poland,50.3,18.7833,Pharmacy,Institution,Decidenu Galantrigine,Antipiretics,3.0,590,1770.0,March,2018,Jimmy Grey,Alisha Cordwell,Charlie,Low
Prohaska-Kuhic ,Jakubowski Inc Pharmaceutical Limited,Bolesławiec,Poland,51.2667,15.5667,Pharmacy,Retail,Ultrimax Ultriset,Antiseptics,1.0,269,269.0,April,2018,Daniel Gates,Alisha Cordwell,Charlie,Low
Smith Inc ,"Kuphal, D'Amore and Bode Pharmaceutical Ltd",Szczecin,Poland,53.4247,14.5553,Pharmacy,Retail,Cricane Acamsumab,Antiseptics,5.0,22,110.0,April,2018,Abigail Thompson,Tracy Banks,Bravo,Low
Beier  ,Hill Ltd ,Gliwice,Poland,50.2976,18.6766,Pharmacy,Retail,Acycnafine Microvate,Mood Stabilizers,22.0,658,14476.0,April,2018,Steve Pepple,Tracy Banks,Bravo,Medium
Gottlieb-Cruickshank  ,"McClure, Zemlak and Dibbert Pharmaceutical Limited",Kórnik,Poland,52.2367,17.0986,Hospital,Private,Atrabicin Alkerotec,Antiseptics,8.0,249,1992.0,April,2018,Thompson Crawford,James Goodwill,Alfa,Low
Gottlieb-Cruickshank  ,Rutherford and Sons ,Gdynia,Poland,54.5189,18.5319,Pharmacy,Retail,Trazozaprine,Mood Stabilizers,60.0,708,42480.0,April,2018,Abigail Thompson,Tracy Banks,Bravo,High
Cassin  ,Vandervort LLC Pharma Plc,Łańcut,Poland,50.0687,22.2291,Pharmacy,Institution,Temasone Thiobucil,Antimalarial,20.0,482,9640.0,April,2018,Stella Given,Alisha Cordwell,Charlie,Medium
Gottlieb-Cruickshank  ,Emard-O'Connell Pharmacy,Zakopane,Poland,49.2994,19.9519,Pharmacy,Retail,Alarudin Azarolac,Mood Stabilizers,100.0,567,56700.0,April,2018,Stella Given,Alisha Cordwell,Charlie,High
Prohaska-Kuhic ,Stehr-Champlin Pharmaceutical Limited,Nowe Miasto Lubawskie,Poland,53.4167,19.5833,Hospital,Government,Afluferon Entrarenone,Antimalarial,5.0,104,520.0,April,2018,Sheila Stones,Britanny Bold,Delta,Low
Gottlieb-Cruickshank  ,Hermiston and Sons Pharma Plc,Bochnia,Poland,49.9833,20.4333,Pharmacy,Institution,Ceretosine,Antiseptics,2.0,343,686.0,April,2018,Sheila Stones,Britanny Bold,Delta,Low
Prohaska-Kuhic ,Crona PLC Pharma Plc,Białogard,Poland,54.007,15.987499999999999,Hospital,Private,Paronium Atracustone,Analgesics,2.0,414,828.0,April,2018,Anne Wu,Britanny Bold,Delta,Low
Beier  ,Lesch PLC Pharmacy,Wrocław,Poland,51.1077,17.0353,Hospital,Private,Insozyme,Antiseptics,20.0,655,13100.0,April,2018,Daniel Gates,Alisha Cordwell,Charlie,Medium
Gottlieb-Cruickshank  ,Waelchi LLC Pharmacy,Katowice,Poland,50.25,19.0,Hospital,Government,Kinenadryl,Antipiretics,1.0,782,782.0,April,2018,Abigail Thompson,Tracy Banks,Bravo,Low
Prohaska-Kuhic ,"Buckridge, Dach and Carroll Pharmaceutical Limited",Luboń,Poland,52.3333,19.00787995079951,Hospital,Private,Propratecan,Antimalarial,20.0,682,13640.0,April,2018,Abigail Thompson,Tracy Banks,Bravo,Medium
Gottlieb-Cruickshank  ,Hermiston and Sons Pharma Plc,Bochnia,Poland,49.9833,20.4333,Pharmacy,Institution,Fentalac,Antipiretics,1.0,618,618.0,April,2018,Abigail Thompson,Tracy Banks,Bravo,Low
Smith Inc ,Kutch-Marks Pharm,Chełm,Poland,51.1333,23.4833,Hospital,Private,Antaparin Varizyme,Mood Stabilizers,12.0,513,6156.0,April,2018,Alan Ray,James Goodwill,Alfa,Low
Cassin  ,"Paucek, Keeling and Bruen Pharm",Łęczna,Poland,51.3,22.8833,Pharmacy,Institution,Tetratanyl,Antimalarial,144.0,511,73584.0,April,2018,Morris Garcia,Tracy Banks,Bravo,High
Gottlieb-Cruickshank  ,"Upton, Abernathy and Goodwin Pharmaceutical Ltd",Jarosław,Poland,50.0162,22.6778,Hospital,Government,Allomenda,Antipiretics,3.0,487,1461.0,April,2018,Alan Ray,James Goodwill,Alfa,Low
Beier  ,Koss Ltd Pharmaceutical Limited,Lwówek Śląski,Poland,51.1167,15.5833,Hospital,Private,Novakyn Tracprox,Antiseptics,20.0,288,5760.0,April,2018,Anne Wu,Britanny Bold,Delta,Low
Gottlieb-Cruickshank  ,"Sanford, Franecki and Greenholt ",Nowa Sól,Poland,51.79999999999999,15.7167,Pharmacy,Institution,Morphizolid Tianalin,Mood Stabilizers,10.0,742,7420.0,April,2018,Abigail Thompson,Tracy Banks,Bravo,Low
Prohaska-Kuhic ,Schulist-Zulauf Pharm,Tychy,Poland,50.1667,19.0,Hospital,Private,Propralamide Dexlanzolam,Mood Stabilizers,3.0,391,1173.0,April,2018,Abigail Thompson,Tracy Banks,Bravo,Low
Prohaska-Kuhic ,Sauer and Sons Pharmaceutical Limited,Brzozów,Poland,49.6953,22.0194,Pharmacy,Retail,Malavirine Alimdine,Mood Stabilizers,20.0,767,15340.0,April,2018,Abigail Thompson,Tracy Banks,Bravo,Medium
Gottlieb-Cruickshank  ,"Heathcote, Grant and Witting Pharm",Bielsko-Biała,Poland,49.8225,19.0444,Pharmacy,Institution,Topipizole,Mood Stabilizers,30.0,368,11040.0,April,2018,Thompson Crawford,James Goodwill,Alfa,Medium
Smith Inc ,"Brakus, Rempel and Harber Pharma Plc",Nowy Targ,Poland,49.48330000000001,20.0333,Pharmacy,Institution,Amamadin,Antimalarial,5.0,713,3565.0,April,2018,Thompson Crawford,James Goodwill,Alfa,Low
Smith Inc ,Gibson-Hill Pharma Plc,Chrzanów,Poland,50.1333,19.4,Hospital,Private,Duraprazole Agalsixolol,Antiseptics,10.0,375,3750.0,April,2018,Sheila Stones,Britanny Bold,Delta,Low
Gottlieb-Cruickshank  ,"Effertz, Heaney and Tillman Pharmaceutical Ltd",Jaworzno,Poland,50.2,19.275,Hospital,Government,Sevotrana Tiafoxin,Analgesics,1.0,460,460.0,April,2018,Sheila Stones,Britanny Bold,Delta,Low
Gottlieb-Cruickshank  ,Gerlach LLC ,Krzeszowice,Poland,50.1333,19.6333,Hospital,Government,Symbitrim,Analgesics,20.0,536,10720.0,April,2018,Daniel Gates,Alisha Cordwell,Charlie,Medium
Gottlieb-Cruickshank  ,"Hahn, Rutherford and Gislason Pharmaceutical Limited",Łaziska Górne,Poland,50.15,18.8333,Hospital,Private,Belavarix Benzabicin,Antibiotics,60.0,131,7860.0,April,2018,Erica Jones,James Goodwill,Alfa,Low
Gottlieb-Cruickshank  ,Parisian Ltd Pharm,Jelenia Góra,Poland,50.9,15.7333,Pharmacy,Institution,Ampysin,Analgesics,2.0,243,486.0,April,2018,Anne Wu,Britanny Bold,Delta,Low
Gottlieb-Cruickshank  ,Crist Inc ,Stary Sącz,Poland,49.5625,20.6364,Hospital,Private,Angioparin Brimosumab,Mood Stabilizers,20.0,682,13640.0,April,2018,Stella Given,Alisha Cordwell,Charlie,Medium
Prohaska-Kuhic ,Carter-Conn Pharma Plc,Brwinów,Poland,52.1417,20.7167,Hospital,Private,Antilamin Clinbital,Antibiotics,4.0,664,2656.0,April,2018,Jimmy Grey,Alisha Cordwell,Charlie,Low
Cassin  ,Hermiston LLC ,Strzegom,Poland,51.0,16.3333,Pharmacy,Institution,Clinicilin Pentozone,Antimalarial,100.0,112,11200.0,April,2018,Stella Given,Alisha Cordwell,Charlie,Medium
Prohaska-Kuhic ,Jakubowski Inc Pharmaceutical Limited,Bolesławiec,Poland,51.2667,15.5667,Pharmacy,Retail,Apronazol,Antibiotics,50.0,472,23600.0,April,2018,Jimmy Grey,Alisha Cordwell,Charlie,Medium
Cassin  ,Breitenberg-Kuhn Pharmacy,Radom,Poland,51.4036,21.1567,Hospital,Private,Rositroban,Mood Stabilizers,20.0,481,9620.0,April,2018,Daniel Gates,Alisha Cordwell,Charlie,Medium
Gottlieb-Cruickshank  ,West Group Pharmacy,Kluczbork,Poland,50.9833,18.2167,Hospital,Government,Oxymotroban Fexoformin,Analgesics,20.0,458,9160.0,April,2018,Stella Given,Alisha Cordwell,Charlie,Medium
Smith Inc ,Steuber Ltd Pharmacy,Ostrołęka,Poland,53.0833,21.5667,Hospital,Private,Magneprex,Antimalarial,12.0,187,2244.0,April,2018,Alan Ray,James Goodwill,Alfa,Low
Cassin  ,"Koch, Borer and Hagenes ",Kościan,Poland,52.0833,16.65,Hospital,Private,Propralamide Dexlanzolam,Mood Stabilizers,10.0,391,3910.0,April,2018,Morris Garcia,Tracy Banks,Bravo,Low
Prohaska-Kuhic ,"Paucek, Keeling and Bruen Pharm",Łęczna,Poland,51.3,22.8833,Pharmacy,Institution,Ibruferon,Antiseptics,4.0,82,328.0,April,2018,Anne Wu,Britanny Bold,Delta,Low
Smith Inc ,Zemlak-Witting Pharmacy,Międzyrzecz,Poland,52.4446,15.578,Pharmacy,Institution,Acycpex,Mood Stabilizers,5.0,510,2550.0,April,2018,Abigail Thompson,Tracy Banks,Bravo,Low
Gottlieb-Cruickshank  ,Hermiston and Sons Pharma Plc,Bochnia,Poland,49.9833,20.4333,Pharmacy,Institution,Adriacaine,Mood Stabilizers,20.0,361,7220.0,April,2018,Jessica Smith,Britanny Bold,Delta,Low
Gottlieb-Cruickshank  ,Nader-Gaylord Pharmaceutical Limited,Sobótka,Poland,50.8986,16.7444,Hospital,Private,Panpion,Antiseptics,20.0,692,13840.0,April,2018,Mary Gerrard,Britanny Bold,Delta,Medium
Gottlieb-Cruickshank  ,"Herman, Rice and Rippin ",Ziębice,Poland,50.6,17.0444,Hospital,Government,Topitaine,Mood Stabilizers,20.0,517,10340.0,April,2018,Sheila Stones,Britanny Bold,Delta,Medium
Gottlieb-Cruickshank  ,"Wiegand, Jast and Yost Pharma Plc",Płock,Poland,52.55,19.7,Hospital,Private,Pulmogen Alitora,Antiseptics,2.0,647,1294.0,April,2018,Daniel Gates,Alisha Cordwell,Charlie,Low
Gottlieb-Cruickshank  ,Zemlak-Witting Pharmacy,Międzyrzecz,Poland,52.4446,15.578,Pharmacy,Institution,Fentatrol Rapatelase,Antibiotics,20.0,458,9160.0,April,2018,Daniel Gates,Alisha Cordwell,Charlie,Medium
Smith Inc ,Kutch-Marks Pharm,Chełm,Poland,51.1333,23.4833,Hospital,Private,Proderal,Antiseptics,20.0,34,680.0,April,2018,Thompson Crawford,James Goodwill,Alfa,Low
Prohaska-Kuhic ,Schulist-Zulauf Pharm,Tychy,Poland,50.1667,19.0,Hospital,Private,Dorzovorin Pentadarone,Antimalarial,3.0,164,492.0,April,2018,Jimmy Grey,Alisha Cordwell,Charlie,Low
Gottlieb-Cruickshank  ,Crona PLC Pharma Plc,Białogard,Poland,54.007,15.9875,Hospital,Private,Magnemunex,Antiseptics,10.0,689,6890.0,April,2018,Daniel Gates,Alisha Cordwell,Charlie,Low
Smith Inc ,"Wintheiser, Breitenberg and Gottlieb Pharmaceutical Limited",Milanówek,Poland,52.1243,20.6654,Pharmacy,Retail,Ketastadil,Analgesics,3.0,763,2289.0,April,2018,Jimmy Grey,Alisha Cordwell,Charlie,Low
Gottlieb-Cruickshank  ,Hill Ltd ,Gliwice,Poland,50.2976,18.6766,Pharmacy,Retail,Ketastadil,Analgesics,20.0,763,15260.0,April,2018,Stella Given,Alisha Cordwell,Charlie,Medium
Smith Inc ,Gerlach LLC ,Krzeszowice,Poland,50.1333,19.6333,Hospital,Government,Lovepion,Antiseptics,45.0,544,24480.0,April,2018,Abigail Thompson,Tracy Banks,Bravo,High
Smith Inc ,Crist Inc ,Stary Sącz,Poland,49.5625,20.6364,Hospital,Private,Symbitrim,Analgesics,6.0,536,3216.0,April,2018,Thompson Crawford,James Goodwill,Alfa,Low
Stehr-Champlin  ,Lesch PLC Pharmaceutical Ltd,Głuszyca,Poland,50.6874,16.3717,Pharmacy,Retail,Primapion,Antibiotics,50.0,492,24600.0,May,2018,Abigail Thompson,Tracy Banks,Bravo,High
Prohaska-Kuhic ,Abernathy Group Pharmaceutical Limited,Brzesko,Poland,49.9667,20.6167,Hospital,Government,Saprodeine Zanprosyn,Antibiotics,5.0,215,1075.0,May,2018,Thompson Crawford,James Goodwill,Alfa,Low
Kris LLC  ,Rowe PLC Pharmaceutical Ltd,Kęty,Poland,49.8821,19.2233,Pharmacy,Institution,Aggrakine,Antiseptics,250.0,47,11750.0,May,2018,Abigail Thompson,Tracy Banks,Bravo,Medium
Prohaska-Kuhic ,Medhurst-Beer Pharmaceutical Limited,Rybnik,Poland,50.0833,18.5,Pharmacy,Institution,Paronium Atracustone,Analgesics,50.0,414,20700.0,May,2018,Stella Given,Alisha Cordwell,Charlie,Medium
Prohaska-Kuhic ,"Reynolds, Jast and Mante Pharma Plc",Pleszew,Poland,51.8974,17.7856,Pharmacy,Institution,Interzide,Antimalarial,10.0,420,4200.0,May,2018,Jimmy Grey,Alisha Cordwell,Charlie,Low
Smith Inc ,Mills Inc Pharma Plc,Bydgoszcz,Poland,53.1167,18.0,Hospital,Private,Cortirodine Alimcline,Antipiretics,10.0,128,1280.0,May,2018,Stella Given,Alisha Cordwell,Charlie,Low
Prohaska-Kuhic ,"McClure, Zemlak and Dibbert Pharmaceutical Limited",Kórnik,Poland,52.2367,17.0986,Hospital,Private,Abilovir Aprotasol,Antipiretics,2.0,269,538.0,May,2018,Daniel Gates,Alisha Cordwell,Charlie,Low
Stehr-Champlin  ,Monahan Ltd ,Oświęcim,Poland,50.0333,19.2333,Hospital,Government,Imiformin Transmunex,Antibiotics,1.0,400,400.0,May,2018,Thompson Crawford,James Goodwill,Alfa,Low
Smith Inc ,Schmitt LLC Pharm,Nysa,Poland,50.4738,17.3344,Pharmacy,Retail,Claricriptine Adaferol,Antibiotics,36.0,33,1188.0,May,2018,Abigail Thompson,Tracy Banks,Bravo,Low
Prohaska-Kuhic ,Nader-Borer Pharma Plc,Bielawa,Poland,50.6908,16.623,Pharmacy,Retail,Clindaracil,Analgesics,12.0,173,2076.0,May,2018,Jessica Smith,Britanny Bold,Delta,Low
Stehr-Champlin  ,Lockman Ltd ,Połaniec,Poland,50.4333,21.2833,Pharmacy,Institution,Diazemid Felcept,Analgesics,4.0,613,2452.0,May,2018,Alan Ray,James Goodwill,Alfa,Low
Smith Inc ,Pfannerstill Group Pharmaceutical Ltd,Jelcz-Laskowice,Poland,51.0333,17.3333,Pharmacy,Retail,Dexacilin Triline,Analgesics,2.0,129,258.0,May,2018,Anne Wu,Britanny Bold,Delta,Low
Stehr-Champlin  ,Crona PLC Pharma Plc,Białogard,Poland,54.007,15.9875,Hospital,Private,Tacrodomide,Antipiretics,1.0,420,420.0,May,2018,Abigail Thompson,Tracy Banks,Bravo,Low
Prohaska-Kuhic ,D'Amore and Sons ,Wągrowiec,Poland,52.8,17.2,Hospital,Private,Nevanide Actozide,Antibiotics,10.0,773,7730.0,May,2018,Steve Pepple,Tracy Banks,Bravo,Low
Stehr-Champlin  ,"Blick, Pacocha and Schowalter ",Inowrocław,Poland,52.7958,18.2611,Pharmacy,Retail,Trazobalamin,Mood Stabilizers,5.0,762,3810.0,May,2018,Abigail Thompson,Tracy Banks,Bravo,Low
Stehr-Champlin  ,Welch-Orn ,Chełmno,Poland,53.3492,18.4261,Hospital,Private,Symbisine Prednimadin,Mood Stabilizers,4.0,304,1216.0,May,2018,Sheila Stones,Britanny Bold,Delta,Low
Kris LLC  ,"Buckridge, Hand and Hyatt Pharma Plc",Zgorzelec,Poland,51.1528,15.0,Pharmacy,Institution,Novakyn Tracprox,Antiseptics,50.0,288,14400.0,May,2018,Daniel Gates,Alisha Cordwell,Charlie,Medium
Stehr-Champlin  ,"Kuphal, D'Amore and Bode Pharmaceutical Ltd",Szczecin,Poland,53.4247,14.5553,Pharmacy,Retail,Vibratosine Alemtrace,Antibiotics,50.0,269,13450.0,May,2018,Jimmy Grey,Alisha Cordwell,Charlie,Medium
Stehr-Champlin  ,Hayes-Kilback Pharmaceutical Ltd,Żary,Poland,51.6333,15.1333,Pharmacy,Retail,Robapril,Antipiretics,5.0,453,2265.0,May,2018,Anne Wu,Britanny Bold,Delta,Low
Smith Inc ,Lesch PLC Pharmacy,Wrocław,Poland,51.1077,17.0353,Hospital,Private,Adalatamine,Antiseptics,336.0,794,266784.0,May,2018,Alan Ray,James Goodwill,Alfa,High
Beier  ,Stehr-Champlin Pharmaceutical Limited,Nowe Miasto Lubawskie,Poland,53.4167,19.5833,Hospital,Government,Cephozumab Synmethate,Antibiotics,20.0,768,15360.0,May,2018,Jimmy Grey,Alisha Cordwell,Charlie,Medium
Stehr-Champlin  ,Nader-Gaylord Pharmaceutical Ltd,Łódź,Poland,51.7769,19.4547,Pharmacy,Retail,Hydroxyprosyn,Antibiotics,50.0,220,11000.0,May,2018,Anne Wu,Britanny Bold,Delta,Medium
Smith Inc ,Mraz Group Pharmacy,Piastów,Poland,52.1833,20.85,Hospital,Private,Asparathasone Unipan,Antibiotics,5.0,153,765.0,May,2018,Thompson Crawford,James Goodwill,Alfa,Low
Stehr-Champlin  ,Sauer and Sons Pharmaceutical Limited,Brzozów,Poland,49.6953,22.0194,Pharmacy,Retail,Ionclotide,Analgesics,30.0,631,18930.0,May,2018,Alan Ray,James Goodwill,Alfa,Medium
Stehr-Champlin  ,Monahan Ltd ,Oświęcim,Poland,50.0333,19.2333,Hospital,Government,Zarostral,Antipiretics,3.0,141,423.0,May,2018,Sheila Stones,Britanny Bold,Delta,Low
Prohaska-Kuhic ,Mann-Waelchi Pharm,Piotrków Trybunalski,Poland,51.4,19.6833,Hospital,Private,Quiniprosyn,Antiseptics,4.0,445,1780.0,May,2018,Steve Pepple,Tracy Banks,Bravo,Low
Beier  ,"Hills, Stroman and Ernser Pharm",Pułtusk,Poland,52.7025,21.0828,Hospital,Private,Clinolan Pitoletra,Mood Stabilizers,20.0,130,2600.0,May,2018,Abigail Thompson,Tracy Banks,Bravo,Low
Prohaska-Kuhic ,Mraz-Kutch Pharm,Bieruń Stary,Poland,50.0897,19.0928,Pharmacy,Retail,Zonitonin,Antiseptics,40.0,518,20720.0,May,2018,Steve Pepple,Tracy Banks,Bravo,Medium
Prohaska-Kuhic ,Fadel-West ,Złotoryja,Poland,51.1264,15.9198,Pharmacy,Institution,Imiformin Transmunex,Antibiotics,5.0,400,2000.0,May,2018,Jessica Smith,Britanny Bold,Delta,Low
Stehr-Champlin  ,Crist Inc ,Stary Sącz,Poland,49.5625,20.6364,Hospital,Private,Ketastadil,Analgesics,120.0,763,91560.0,May,2018,Jessica Smith,Britanny Bold,Delta,High
Smith Inc ,Miller-Satterfield Pharma Plc,Nidzica,Poland,53.3583,20.425,Hospital,Private,Ribabyclor,Antiseptics,50.0,469,23450.0,May,2018,Daniel Gates,Alisha Cordwell,Charlie,Medium
Smith Inc ,West Group Pharmacy,Kluczbork,Poland,50.9833,18.2167,Hospital,Government,Pitodomide,Antimalarial,5.0,24,120.0,May,2018,Daniel Gates,Alisha Cordwell,Charlie,Low
Smith Inc ,"Beer, Kohler and Beatty Pharmaceutical Ltd",Rypin,Poland,53.0667,19.45,Pharmacy,Retail,Ultrimax Ultriset,Antiseptics,2.0,269,538.0,May,2018,Jessica Smith,Britanny Bold,Delta,Low
Smith Inc ,"Wintheiser, Breitenberg and Gottlieb Pharmaceutical Limited",Milanówek,Poland,52.1243,20.6654,Pharmacy,Retail,Choriogestrel,Antiseptics,3.0,347,1041.0,May,2018,Jessica Smith,Britanny Bold,Delta,Low
Stehr-Champlin  ,Zemlak Group Pharmaceutical Limited,Koszalin,Poland,54.1903,16.1817,Hospital,Private,Presetron,Mood Stabilizers,20.0,216,4320.0,May,2018,Daniel Gates,Alisha Cordwell,Charlie,Low
Smith Inc ,"Schmitt, Berge and Haley Pharma Plc",Kłodzko,Poland,50.4378,16.6528,Hospital,Private,Syntheruvax Proracin,Antimalarial,1.0,86,86.0,May,2018,Anne Wu,Britanny Bold,Delta,Low
Stehr-Champlin  ,Leuschke PLC Pharmacy,Ciechanów,Poland,52.8817,20.6106,Pharmacy,Retail,Cyclovital,Antimalarial,5.0,677,3385.0,May,2018,Alan Ray,James Goodwill,Alfa,Low
Beier  ,Heller-Abernathy ,Brzeg Dolny,Poland,51.273,16.7081,Hospital,Private,Clinicilin Pentozone,Antimalarial,150.0,112,16800.0,May,2018,Morris Garcia,Tracy Banks,Bravo,Medium
Prohaska-Kuhic ,Pfannerstill Group Pharmaceutical Ltd,Jelcz-Laskowice,Poland,51.0333,17.3333,Pharmacy,Retail,Pazofenac,Mood Stabilizers,1.0,123,123.0,May,2018,Steve Pepple,Tracy Banks,Bravo,Low
Prohaska-Kuhic ,Lockman Ltd ,Połaniec,Poland,50.4333,21.2833,Pharmacy,Institution,Cephovelam,Mood Stabilizers,5.0,542,2710.0,May,2018,Stella Given,Alisha Cordwell,Charlie,Low
Stehr-Champlin  ,"McClure, Zemlak and Dibbert Pharmaceutical Limited",Kórnik,Poland,52.2367,17.0986,Hospital,Private,Menogine,Antiseptics,100.0,742,74200.0,May,2018,Mary Gerrard,Britanny Bold,Delta,High
Prohaska-Kuhic ,West Group Pharmacy,Kluczbork,Poland,50.9833,18.2167,Hospital,Government,Acantaine,Antibiotics,4.0,66,264.0,May,2018,Abigail Thompson,Tracy Banks,Bravo,Low
Stehr-Champlin  ,Funk and Sons Pharmaceutical Limited,Tarnobrzeg,Poland,50.5833,21.6833,Pharmacy,Retail,Acubulin,Antipiretics,50.0,490,24500.0,May,2018,Mary Gerrard,Britanny Bold,Delta,High
Beier  ,Rowe PLC Pharmaceutical Ltd,Kęty,Poland,49.8821,19.2233,Pharmacy,Institution,Tracdomide,Antipiretics,20.0,548,10960.0,May,2018,Daniel Gates,Alisha Cordwell,Charlie,Medium
Beier  ,Kunze PLC Pharm,Darłowo,Poland,54.4167,16.4167,Hospital,Private,Sodinel Olofribrate,Antimalarial,30.0,50,1500.0,May,2018,Sheila Stones,Britanny Bold,Delta,Low
Stehr-Champlin  ,Buckridge-Davis ,Legnica,Poland,51.2101,16.1619,Hospital,Private,Penitrana,Analgesics,5.0,179,895.0,May,2018,Stella Given,Alisha Cordwell,Charlie,Low
Stehr-Champlin  ,Zemlak-Witting Pharmacy,Międzyrzecz,Poland,52.4446,15.578,Pharmacy,Institution,Stelazolid,Antimalarial,10.0,73,730.0,May,2018,Mary Gerrard,Britanny Bold,Delta,Low
Beier  ,"Steuber, Skiles and Kilback Pharma Plc",Sosnowiec,Poland,50.3,19.1667,Pharmacy,Retail,Hepavice,Mood Stabilizers,20.0,140,2800.0,May,2018,Anne Wu,Britanny Bold,Delta,Low
Stehr-Champlin  ,Bashirian-Kassulke Pharma Plc,Kraków,Poland,50.0614,19.9372,Hospital,Private,Finanel,Antimalarial,10.0,206,2060.0,May,2018,Anne Wu,Britanny Bold,Delta,Low
Smith Inc ,Hermiston LLC ,Strzegom,Poland,51.0,16.3333,Pharmacy,Institution,Finanel,Antimalarial,4.0,206,824.0,May,2018,Abigail Thompson,Tracy Banks,Bravo,Low
Prohaska-Kuhic ,Parisian Ltd Pharm,Jelenia Góra,Poland,50.9,15.7333,Pharmacy,Institution,Zyvance,Analgesics,3.0,323,969.0,June,2018,Daniel Gates,Alisha Cordwell,Charlie,Low
Stehr-Champlin  ,Rutherford and Sons ,Gdynia,Poland,54.5189,18.5319,Pharmacy,Retail,Dantocept Ferurenone,Antiseptics,5.0,307,1535.0,June,2018,Thompson Crawford,James Goodwill,Alfa,Low
Stehr-Champlin  ,D'Amore and Sons ,Wągrowiec,Poland,52.8,17.2,Hospital,Private,Atrabicin Alkerotec,Antiseptics,5.0,249,1245.0,June,2018,Jessica Smith,Britanny Bold,Delta,Low
Lindgren-Simonis Pharm,"Zieme, Doyle and Kunze ",Lublin,Poland,51.2333,22.5667,Hospital,Private,Testant,Mood Stabilizers,648.0,488,316224.0,June,2018,Jimmy Grey,Alisha Cordwell,Charlie,High
Beier  ,"Brakus, Rempel and Harber Pharma Plc",Nowy Targ,Poland,49.4833,20.0333,Pharmacy,Institution,Effidomide Evofribrate,Antiseptics,30.0,612,18360.0,June,2018,Alan Ray,James Goodwill,Alfa,Medium
Stehr-Champlin  ,Emard-O'Connell Pharmacy,Zakopane,Poland,49.2994,19.9519,Pharmacy,Retail,Lansopril Acribax,Antipiretics,1.0,492,492.0,June,2018,Jessica Smith,Britanny Bold,Delta,Low
Stehr-Champlin  ,"Reynolds, Jast and Mante Pharma Plc",Pleszew,Poland,51.8974,17.7856,Pharmacy,Institution,Sanctumine,Antimalarial,1.0,149,149.0,June,2018,Abigail Thompson,Tracy Banks,Bravo,Low
Stehr-Champlin  ,"Gleichner, Bahringer and Morar Pharma Plc",Gostynin,Poland,52.4167,19.4667,Hospital,Private,Travoloride,Antiseptics,4.0,785,3140.0,June,2018,Mary Gerrard,Britanny Bold,Delta,Low
Stehr-Champlin  ,"Towne, Cummerata and Blanda Pharm",Kalisz,Poland,51.757,18.083,Hospital,Private,Docstryl Rivacin,Antiseptics,1.0,789,789.0,June,2018,Alan Ray,James Goodwill,Alfa,Low
Stehr-Champlin  ,"Gleichner, Bahringer and Morar Pharma Plc",Gostynin,Poland,52.4167,19.4667,Hospital,Private,Oxymotroban Fexoformin,Analgesics,10.0,458,4580.0,June,2018,Alan Ray,James Goodwill,Alfa,Low
Lindgren-Simonis Pharm,"Kertzmann, Quitzon and Harris Pharma Plc",Reszel,Poland,54.0504,21.1458,Hospital,Government,Adideine,Mood Stabilizers,6.0,678,4068.0,June,2018,Mary Gerrard,Britanny Bold,Delta,Low
Stehr-Champlin  ,Schimmel-Waelchi Pharmaceutical Ltd,Grodzisk Mazowiecki,Poland,52.1039,20.6337,Hospital,Government,Sevoderm,Antipiretics,10.0,663,6630.0,June,2018,Jimmy Grey,Alisha Cordwell,Charlie,Low
Stehr-Champlin  ,Koss-Beier ,Nakło nad Notecią,Poland,53.1421,17.6018,Pharmacy,Retail,Choriotrisin,Antibiotics,2.0,591,1182.0,June,2018,Daniel Gates,Alisha Cordwell,Charlie,Low
Lindgren-Simonis Pharm,Carter-Conn Pharma Plc,Brwinów,Poland,52.1417,20.7167,Hospital,Private,Lansopril Acribax,Antipiretics,20.0,492,9840.0,June,2018,Jimmy Grey,Alisha Cordwell,Charlie,Medium
Stehr-Champlin  ,Kling Inc Pharmaceutical Ltd,Ostrowiec Świętokrzyski,Poland,50.9333,21.4,Pharmacy,Institution,Acantaine,Antibiotics,1.0,66,66.0,June,2018,Morris Garcia,Tracy Banks,Bravo,Low
Stehr-Champlin  ,Bayer LLC Pharmaceutical Ltd,Bytów,Poland,54.1667,17.5,Hospital,Private,Tracdomide,Antipiretics,36.0,548,19728.0,June,2018,Abigail Thompson,Tracy Banks,Bravo,Medium
Lindgren-Simonis Pharm,"Nitzsche, Effertz and Maggio Pharmacy",Malbork,Poland,54.0285,19.0444,Hospital,Private,Cordamectin Actolamin,Antipiretics,3.0,367,1101.0,June,2018,Steve Pepple,Tracy Banks,Bravo,Low
Stehr-Champlin  ,"Roob, Ernser and Kub Pharmaceutical Limited",Suwałki,Poland,54.0833,22.9333,Hospital,Government,Claricriptine Adaferol,Antibiotics,2.0,33,66.0,June,2018,Abigail Thompson,Tracy Banks,Bravo,Low
Stehr-Champlin  ,"McClure, Zemlak and Dibbert Pharmaceutical Limited",Kórnik,Poland,52.2367,17.0986,Hospital,Private,Sumanazole,Analgesics,4.0,529,2116.0,June,2018,Jessica Smith,Britanny Bold,Delta,Low
Lindgren-Simonis Pharm,Kozey-Schroeder ,Jawor,Poland,51.05,16.1833,Hospital,Private,Bexridol,Antipiretics,5.0,80,400.0,June,2018,Stella Given,Alisha Cordwell,Charlie,Low
Stehr-Champlin  ,Funk PLC Pharmaceutical Limited,Mikołów,Poland,50.171,18.9041,Hospital,Government,Flutacerol,Analgesics,5.0,745,3725.0,June,2018,Erica Jones,James Goodwill,Alfa,Low
Lindgren-Simonis Pharm,Leannon-West Pharmacy,Cieszyn,Poland,49.75,18.6333,Pharmacy,Retail,Adriafinil Ehtymara,Antiseptics,96.0,535,51360.0,June,2018,Mary Gerrard,Britanny Bold,Delta,High
Beier  ,"Wiegand, Jast and Yost Pharma Plc",Płock,Poland,52.55,19.7,Hospital,Private,Temasone Thiobucil,Antimalarial,200.0,482,96400.0,June,2018,Anne Wu,Britanny Bold,Delta,High
Beier  ,Koss-Beier ,Nakło nad Notecią,Poland,53.1421,17.6018,Pharmacy,Retail,Spiroderall,Mood Stabilizers,200.0,653,130600.0,June,2018,Jimmy Grey,Alisha Cordwell,Charlie,High
Prohaska-Kuhic ,"Hansen, Fadel and Schroeder Pharm",Gniezno,Poland,52.5333,17.6,Pharmacy,Retail,Syntheruvax Proracin,Antimalarial,20.0,86,1720.0,June,2018,Thompson Crawford,James Goodwill,Alfa,Low
Stehr-Champlin  ,"Herman, Rice and Rippin ",Ziębice,Poland,50.6,17.0444,Hospital,Government,Ultrimax Ultriset,Antiseptics,21.0,269,5649.0,June,2018,Jimmy Grey,Alisha Cordwell,Charlie,Low
Lindgren-Simonis Pharm,Veum-Kerluke Pharmacy,Człuchów,Poland,53.65,17.3667,Pharmacy,Retail,Afluferon Entrarenone,Antimalarial,5.0,104,520.0,June,2018,Alan Ray,James Goodwill,Alfa,Low
Stehr-Champlin  ,"McClure, Zemlak and Dibbert Pharma Plc",Gdańsk,Poland,54.3667,18.6333,Pharmacy,Retail,Zynosine,Antimalarial,3.0,74,222.0,June,2018,Jimmy Grey,Alisha Cordwell,Charlie,Low
Stehr-Champlin  ,Boyer and Sons Pharmaceutical Limited,Wałcz,Poland,53.2667,16.4667,Hospital,Government,Kinerinex,Antiseptics,3.0,647,1941.0,June,2018,Sheila Stones,Britanny Bold,Delta,Low
Stehr-Champlin  ,Steuber Ltd Pharmacy,Ostrołęka,Poland,53.0833,21.5667,Hospital,Private,Biotasol Siloderm,Antiseptics,20.0,373,7460.0,June,2018,Sheila Stones,Britanny Bold,Delta,Low
Lindgren-Simonis Pharm,"Wiegand, Jast and Yost Pharma Plc",Płock,Poland,52.55,19.7,Hospital,Private,Effigine Propraprex,Antimalarial,24.0,377,9048.0,June,2018,Mary Gerrard,Britanny Bold,Delta,Medium
Stehr-Champlin  ,"Bernier, Murphy and Rau Pharmaceutical Ltd",Ruda Śląska,Poland,50.2628,18.8536,Pharmacy,Institution,Sevoderm,Antipiretics,3.0,663,1989.0,June,2018,Sheila Stones,Britanny Bold,Delta,Low
Lindgren-Simonis Pharm,Runte-Marquardt Pharmaceutical Ltd,Olecko,Poland,54.0333,22.5,Hospital,Private,Lovapur,Mood Stabilizers,8.0,551,4408.0,June,2018,Jimmy Grey,Alisha Cordwell,Charlie,Low
Lindgren-Simonis Pharm,"Sanford, Franecki and Greenholt ",Nowa Sól,Poland,51.8,15.7167,Pharmacy,Institution,Hydroxyprosyn,Antibiotics,1080.0,220,237600.0,June,2018,Daniel Gates,Alisha Cordwell,Charlie,High
Beier  ,"Beer, Kohler and Beatty Pharmaceutical Ltd",Rypin,Poland,53.0667,19.45,Pharmacy,Retail,Pulmodiol Adalaxime,Analgesics,72.0,605,43560.0,June,2018,Erica Jones,James Goodwill,Alfa,High
Stehr-Champlin  ,Hartmann-Wolf ,Trzebnica,Poland,51.305,17.0614,Hospital,Government,Zithrotrol,Antiseptics,20.0,137,2740.0,June,2018,Morris Garcia,Tracy Banks,Bravo,Low
Stehr-Champlin  ,"Upton, Abernathy and Goodwin Pharmaceutical Ltd",Jarosław,Poland,50.0162,22.6778,Hospital,Government,Cordamectin Actolamin,Antipiretics,4.0,367,1468.0,June,2018,Jimmy Grey,Alisha Cordwell,Charlie,Low
Lindgren-Simonis Pharm,Vandervort LLC Pharma Plc,Łańcut,Poland,50.0687,22.2291,Pharmacy,Institution,Abranatal Lysoprosate,Antiseptics,24.0,681,16344.0,June,2018,Alan Ray,James Goodwill,Alfa,Medium
Stehr-Champlin  ,Feest PLC ,Świecie,Poland,53.4167,18.4333,Pharmacy,Retail,Trazozaprine,Mood Stabilizers,2.0,708,1416.0,June,2018,Daniel Gates,Alisha Cordwell,Charlie,Low
Stehr-Champlin  ,Haley PLC Pharmaceutical Limited,Opole,Poland,50.6722,17.9253,Pharmacy,Retail,Afaxacin,Analgesics,1.0,60,60.0,June,2018,Erica Jones,James Goodwill,Alfa,Low
Lindgren-Simonis Pharm,Hermiston and Sons Pharma Plc,Bochnia,Poland,49.9833,20.4333,Pharmacy,Institution,Diprolimus,Antiseptics,20.0,634,12680.0,June,2018,Alan Ray,James Goodwill,Alfa,Medium
Lindgren-Simonis Pharm,Pfeffer-Hodkiewicz Pharmaceutical Ltd,Szczytno,Poland,53.5628,20.9853,Hospital,Government,Abranatal Lysoprosate,Antiseptics,5.0,681,3405.0,June,2018,Anne Wu,Britanny Bold,Delta,Low
Lindgren-Simonis Pharm,"Wintheiser, Breitenberg and Gottlieb Pharmaceutical Limited",Milanówek,Poland,52.1243,20.6654,Pharmacy,Retail,Comzyme,Antibiotics,2.0,114,228.0,June,2018,Thompson Crawford,James Goodwill,Alfa,Low
Lindgren-Simonis Pharm,Lindgren-Simonis Pharm,Biskupiec,Poland,53.8647,20.9569,Pharmacy,Retail,Araxetine,Antibiotics,4.0,450,1800.0,June,2018,Morris Garcia,Tracy Banks,Bravo,Low
Prohaska-Kuhic ,West Group Pharmacy,Kluczbork,Poland,50.9833,18.2167,Hospital,Government,Effigine Propraprex,Antimalarial,1.0,377,377.0,June,2018,Stella Given,Alisha Cordwell,Charlie,Low
Beier  ,Nader-Gaylord Pharmaceutical Ltd,Łódź,Poland,51.7769,19.4547,Pharmacy,Retail,Quiniprosyn,Antiseptics,10.0,445,4450.0,June,2018,Erica Jones,James Goodwill,Alfa,Low
Lindgren-Simonis Pharm,Welch-Orn ,Chełmno,Poland,53.3492,18.4261,Hospital,Private,Androporin,Antiseptics,20.0,659,13180.0,June,2018,Jimmy Grey,Alisha Cordwell,Charlie,Medium
Schuppe Inc ,Kunze PLC Pharm,Darłowo,Poland,54.4167,16.4167,Hospital,Private,Doxivorin,Antimalarial,24.0,516,12384.0,June,2018,Abigail Thompson,Tracy Banks,Bravo,Medium
Stehr-Champlin  ,Powlowski-Buckridge Pharma Plc,Ustka,Poland,54.5805,16.8619,Hospital,Private,Robapril,Antipiretics,3.0,453,1359.0,June,2018,Mary Gerrard,Britanny Bold,Delta,Low
Lindgren-Simonis Pharm,"Kuphal, D'Amore and Bode Pharmaceutical Ltd",Szczecin,Poland,53.4247,14.5553,Pharmacy,Retail,Hydroxyprosyn,Antibiotics,10.0,220,2200.0,June,2018,Alan Ray,James Goodwill,Alfa,Low
Stehr-Champlin  ,"Cormier, Dietrich and Zulauf Pharma Plc",Puławy,Poland,51.4166,21.9694,Hospital,Government,Ultrimax Ultriset,Antiseptics,3.0,269,807.0,June,2018,Sheila Stones,Britanny Bold,Delta,Low
Stehr-Champlin  ,Ondricka Ltd Pharmacy,Świnoujście,Poland,53.9167,14.25,Hospital,Government,Agalsiline,Mood Stabilizers,10.0,64,640.0,July,2018,Alan Ray,James Goodwill,Alfa,Low
Stehr-Champlin  ,Senger-Kirlin Pharmacy,Kobyłka,Poland,52.3395,21.1959,Hospital,Government,Sevotrana Tiafoxin,Analgesics,4.0,460,1840.0,July,2018,Anne Wu,Britanny Bold,Delta,Low
Prohaska-Kuhic ,Cassin PLC Pharmacy,Miastko,Poland,54.0,16.9833,Hospital,Private,Dasagestin,Analgesics,120.0,386,46320.0,July,2018,Erica Jones,James Goodwill,Alfa,High
Cassin  ,Lesch PLC Pharmaceutical Ltd,Głuszyca,Poland,50.6874,16.3717,Pharmacy,Retail,Tesnorphine Silotamine,Antibiotics,5.0,319,1595.0,July,2018,Abigail Thompson,Tracy Banks,Bravo,Low
Cassin  ,Torp-Fisher Pharma Plc,Gorlice,Poland,49.6556,21.1604,Hospital,Government,Abranatal Lysoprosate,Antiseptics,100.0,681,68100.0,July,2018,Anne Wu,Britanny Bold,Delta,High
Prohaska-Kuhic ,Abernathy Group Pharmaceutical Limited,Brzesko,Poland,49.9667,20.6167,Hospital,Government,Claricriptine Adaferol,Antibiotics,4.0,33,132.0,July,2018,Anne Wu,Britanny Bold,Delta,Low
Cassin  ,Heller-Abernathy ,Brzeg Dolny,Poland,51.273,16.7081,Hospital,Private,Agalsiline,Mood Stabilizers,2.0,64,128.0,July,2018,Abigail Thompson,Tracy Banks,Bravo,Low
Stehr-Champlin  ,Trantow LLC Pharma Plc,Braniewo,Poland,54.3833,19.8333,Pharmacy,Retail,Alimmethate Insudase,Analgesics,220.0,624,137280.0,July,2018,Alan Ray,James Goodwill,Alfa,High
Smith Inc ,"Haag, Bradtke and Terry Pharmacy",Biała Podlaska,Poland,52.0333,23.1167,Hospital,Government,Ultrimax Ultriset,Antiseptics,150.0,269,40350.0,July,2018,Anne Wu,Britanny Bold,Delta,High
Prohaska-Kuhic ,Kling Inc Pharmaceutical Ltd,Ostrowiec Świętokrzyski,Poland,50.9333,21.4,Pharmacy,Institution,Androporin,Antiseptics,-10.0,659,-6590.0,July,2018,Mary Gerrard,Britanny Bold,Delta,Low
Smith Inc ,Mraz-Kutch Pharm,Bieruń Stary,Poland,50.0897,19.0928,Pharmacy,Retail,Agalsiline,Mood Stabilizers,4.0,64,256.0,July,2018,Stella Given,Alisha Cordwell,Charlie,Low
Smith Inc ,Hill Ltd ,Gliwice,Poland,50.2976,18.6766,Pharmacy,Retail,Amlominphen Dexanovate,Analgesics,90.0,119,10710.0,July,2018,Alan Ray,James Goodwill,Alfa,Medium
Smith Inc ,"Gerhold, Mills and Effertz Pharm",Głubczyce,Poland,50.2009,17.8286,Pharmacy,Institution,Sevoderm,Antipiretics,20.0,663,13260.0,July,2018,Mary Gerrard,Britanny Bold,Delta,Medium
Smith Inc ,Balistreri Group Pharmaceutical Ltd,Prudnik,Poland,50.3197,17.5792,Pharmacy,Institution,Symbiroban,Antibiotics,24.0,122,2928.0,July,2018,Steve Pepple,Tracy Banks,Bravo,Low
Prohaska-Kuhic ,"Paucek, Keeling and Bruen Pharm",Łęczna,Poland,51.3,22.8833,Pharmacy,Institution,Quiniprosyn,Antiseptics,10.0,445,4450.0,July,2018,Thompson Crawford,James Goodwill,Alfa,Low
Stehr-Champlin  ,Kuhic LLC Pharma Plc,Oborniki,Poland,52.65,16.8167,Pharmacy,Retail,Diaxolol,Antiseptics,2.0,765,1530.0,July,2018,Steve Pepple,Tracy Banks,Bravo,Low
Stehr-Champlin  ,Ward Group Pharmaceutical Limited,Zabrze,Poland,50.3,18.7833,Pharmacy,Institution,Effidomide Evofribrate,Antiseptics,2.0,612,1224.0,July,2018,Sheila Stones,Britanny Bold,Delta,Low
Smith Inc ,Haley PLC Pharmaceutical Limited,Opole,Poland,50.6722,17.9253,Pharmacy,Retail,Dexmeprazole Transnuvia,Mood Stabilizers,5.0,180,900.0,July,2018,Jessica Smith,Britanny Bold,Delta,Low
Stehr-Champlin  ,Boyer and Sons Pharmaceutical Limited,Wałcz,Poland,53.2667,16.4667,Hospital,Government,Duraprazole Agalsixolol,Antiseptics,2.0,375,750.0,July,2018,Sheila Stones,Britanny Bold,Delta,Low
Prohaska-Kuhic ,Barton Ltd Pharma Plc,Czeladź,Poland,50.3333,19.0833,Hospital,Private,Factolamide,Antiseptics,10.0,345,3450.0,July,2018,Mary Gerrard,Britanny Bold,Delta,Low
Prohaska-Kuhic ,Buckridge-Davis ,Legnica,Poland,51.2101,16.1619,Hospital,Private,Topitaine,Mood Stabilizers,20.0,517,10340.0,July,2018,Sheila Stones,Britanny Bold,Delta,Medium
Stehr-Champlin  ,McCullough LLC Pharma Plc,Częstochowa,Poland,50.8,19.1167,Pharmacy,Retail,Symbitrim,Analgesics,1.0,536,536.0,July,2018,Jessica Smith,Britanny Bold,Delta,Low
Beier  ,Spencer-Jerde Pharmacy,Przeworsk,Poland,50.0591,22.4941,Pharmacy,Institution,Araxetine,Antibiotics,20.0,450,9000.0,July,2018,Steve Pepple,Tracy Banks,Bravo,Medium
Stehr-Champlin  ,Okuneva-Corkery ,Kostrzyn nad Odrą,Poland,52.5883,14.6667,Hospital,Government,Ketastadil,Analgesics,3.0,763,2289.0,July,2018,Jimmy Grey,Alisha Cordwell,Charlie,Low
Stehr-Champlin  ,"Crist, Wisoky and Nolan Pharmaceutical Ltd",Toruń,Poland,53.0167,18.6167,Pharmacy,Retail,Victomine,Antimalarial,20.0,705,14100.0,July,2018,Alan Ray,James Goodwill,Alfa,Medium
Stehr-Champlin  ,Streich PLC Pharmaceutical Limited,Przemyśl,Poland,49.785,22.7673,Pharmacy,Institution,Afluferon Entrarenone,Antimalarial,10.0,104,1040.0,July,2018,Mary Gerrard,Britanny Bold,Delta,Low
Stehr-Champlin  ,"Greenholt, Donnelly and O'Reilly Pharmaceutical Limited",Rumia,Poland,54.5667,18.4,Pharmacy,Retail,Fentatrol Rapatelase,Antibiotics,6.0,458,2748.0,July,2018,Steve Pepple,Tracy Banks,Bravo,Low
Stehr-Champlin  ,Roob PLC ,Świedbodzin,Poland,52.25,15.5333,Pharmacy,Institution,Clinolan Pitoletra,Mood Stabilizers,50.0,130,6500.0,July,2018,Morris Garcia,Tracy Banks,Bravo,Low
Stehr-Champlin  ,Erdman PLC Pharmacy,Ozimek,Poland,50.6731,18.2131,Pharmacy,Institution,Betanem,Analgesics,2.0,611,1222.0,July,2018,Alan Ray,James Goodwill,Alfa,Low
Schuppe Inc ,Heidenreich Group Pharmaceutical Ltd,Rzeszów,Poland,50.05,22.0,Pharmacy,Institution,Ranediol,Antibiotics,200.0,401,80200.0,July,2018,Abigail Thompson,Tracy Banks,Bravo,High
Cassin  ,"Spinka, Schowalter and Conn Pharmaceutical Limited",Biłgoraj,Poland,50.55,22.7333,Pharmacy,Institution,Menogine,Antiseptics,10.0,742,7420.0,July,2018,Sheila Stones,Britanny Bold,Delta,Low
Stehr-Champlin  ,"Bernier, Murphy and Rau Pharmaceutical Ltd",Ruda Śląska,Poland,50.2628,18.8536,Pharmacy,Institution,Factofribrate,Mood Stabilizers,8.0,99,792.0,July,2018,Jessica Smith,Britanny Bold,Delta,Low
Smith Inc ,"Nitzsche, Effertz and Maggio Pharmacy",Malbork,Poland,54.0285,19.0444,Hospital,Private,Ultrimax Ultriset,Antiseptics,6.0,269,1614.0,July,2018,Stella Given,Alisha Cordwell,Charlie,Low
Beier  ,"Balistreri, Torp and Gulgowski Pharmacy",Chełmża,Poland,53.2,18.6,Hospital,Private,Primapion,Antibiotics,10.0,492,4920.0,July,2018,Alan Ray,James Goodwill,Alfa,Low
Stehr-Champlin  ,"Lebsack, Yost and Heller Pharmaceutical Limited",Wieliczka,Poland,49.9894,20.0661,Pharmacy,Institution,Primapion,Antibiotics,10.0,492,4920.0,July,2018,Mary Gerrard,Britanny Bold,Delta,Low
Stehr-Champlin  ,Stehr-Champlin Pharmaceutical Limited,Nowe Miasto Lubawskie,Poland,53.4167,19.5833,Hospital,Government,Tracdomide,Antipiretics,1.0,548,548.0,July,2018,Anne Wu,Britanny Bold,Delta,Low
Smith Inc ,Stehr-Champlin Pharmaceutical Limited,Nowe Miasto Lubawskie,Poland,53.4167,19.5833,Hospital,Government,Alemtuvatol Megalinum,Analgesics,20.0,682,13640.0,July,2018,Thompson Crawford,James Goodwill,Alfa,Medium
Rohan   ,Breitenberg-Kuhn Pharmacy,Radom,Poland,51.4036,21.1567,Hospital,Private,Ketastadil,Analgesics,120.0,763,91560.0,July,2018,Thompson Crawford,James Goodwill,Alfa,High
Stehr-Champlin  ,"Zieme, Doyle and Kunze ",Lublin,Poland,51.2333,22.5667,Hospital,Private,Apromin,Antiseptics,4.0,375,1500.0,July,2018,Jimmy Grey,Alisha Cordwell,Charlie,Low
Stehr-Champlin  ,Jakubowski Inc Pharmaceutical Limited,Bolesławiec,Poland,51.2667,15.5667,Pharmacy,Retail,Choriotrisin,Antibiotics,10.0,591,5910.0,July,2018,Morris Garcia,Tracy Banks,Bravo,Low
Prohaska-Kuhic ,"Harris, Daugherty and Okuneva Pharma Plc",Krotoszyn,Poland,51.697,17.4357,Pharmacy,Retail,Kinovatol,Analgesics,45.0,370,16650.0,July,2018,Daniel Gates,Alisha Cordwell,Charlie,Medium
Rohan   ,Fadel-West ,Złotoryja,Poland,51.1264,15.9198,Pharmacy,Institution,Formolovir Amanferon,Analgesics,50.0,191,9550.0,July,2018,Morris Garcia,Tracy Banks,Bravo,Medium
Stehr-Champlin  ,Schaden-Hirthe Pharmaceutical Ltd,Świdnica,Poland,50.8438,16.4886,Pharmacy,Institution,Pentastrin,Antibiotics,20.0,497,9940.0,July,2018,Anne Wu,Britanny Bold,Delta,Medium
Prohaska-Kuhic ,Kreiger Inc Pharma Plc,Mielec,Poland,50.2833,21.4333,Hospital,Private,Dasagestin,Analgesics,2.0,386,772.0,July,2018,Steve Pepple,Tracy Banks,Bravo,Low
Stehr-Champlin  ,"Bernier, Murphy and Rau Pharmaceutical Ltd",Ruda Śląska,Poland,50.2628,18.8536,Pharmacy,Institution,Saprodeine Zanprosyn,Antibiotics,20.0,215,4300.0,July,2018,Erica Jones,James Goodwill,Alfa,Low
Stehr-Champlin  ,Feest PLC ,Świecie,Poland,53.4167,18.4333,Pharmacy,Retail,Presetron,Mood Stabilizers,15.0,216,3240.0,July,2018,Stella Given,Alisha Cordwell,Charlie,Low
Stehr-Champlin  ,Lemke Ltd Pharm,Tarnów,Poland,50.0125,20.9883,Hospital,Private,Asparathasone Unipan,Antibiotics,5.0,153,765.0,July,2018,Thompson Crawford,James Goodwill,Alfa,Low
Stehr-Champlin  ,Koss-Beier ,Nakło nad Notecią,Poland,53.1421,17.6018,Pharmacy,Retail,Cephozumab Synmethate,Antibiotics,10.0,768,7680.0,July,2018,Jimmy Grey,Alisha Cordwell,Charlie,Low
Stehr-Champlin  ,"Erdman, Senger and Oberbrunner Pharm",Rawa Mazowiecka,Poland,51.7667,20.25,Pharmacy,Retail,Tracdomide,Antipiretics,10.0,548,5480.0,July,2018,Morris Garcia,Tracy Banks,Bravo,Low
Stehr-Champlin  ,"Haag, Bradtke and Terry Pharmacy",Biała Podlaska,Poland,52.0333,23.1167,Hospital,Government,Propralamide Dexlanzolam,Mood Stabilizers,10.0,391,3910.0,July,2018,Jimmy Grey,Alisha Cordwell,Charlie,Low
Prohaska-Kuhic ,Lockman-Welch Pharm,Bytom,Poland,50.347,18.923,Hospital,Government,Ketastadil,Analgesics,10.0,763,7630.0,July,2018,Jimmy Grey,Alisha Cordwell,Charlie,Low
Beier  ,Steuber Ltd Pharmacy,Ostrołęka,Poland,53.0833,21.5667,Hospital,Private,Cephovelam,Mood Stabilizers,90.0,542,48780.0,July,2018,Sheila Stones,Britanny Bold,Delta,High
Stehr-Champlin  ,Crona Group Pharma Plc,Kwidzyn,Poland,53.7358,18.9308,Pharmacy,Institution,Tracdomide,Antipiretics,6.0,548,3288.0,July,2018,Daniel Gates,Alisha Cordwell,Charlie,Low
Stehr-Champlin  ,Monahan Ltd ,Oświęcim,Poland,50.0333,19.2333,Hospital,Government,Aquamycin Lacoran,Analgesics,7.0,345,2415.0,July,2018,Mary Gerrard,Britanny Bold,Delta,Low
Stehr-Champlin  ,"Grimes, Jacobs and Durgan Pharm",Bełchatów,Poland,51.3667,19.3667,Hospital,Private,Acycpex,Mood Stabilizers,5.0,510,2550.0,July,2018,Erica Jones,James Goodwill,Alfa,Low
Stehr-Champlin  ,Schaefer LLC Pharmacy,Kamień Pomorski,Poland,53.9697,14.7858,Hospital,Government,Acelimus,Analgesics,5.0,746,3730.0,July,2018,Mary Gerrard,Britanny Bold,Delta,Low
Stehr-Champlin  ,Raynor-Graham Pharmaceutical Limited,Gorzów Wielkopolski,Poland,52.7333,15.25,Pharmacy,Institution,Testant,Mood Stabilizers,864.0,488,421632.0,July,2018,Anne Wu,Britanny Bold,Delta,High
Stehr-Champlin  ,Barrows Inc ,Hajnówka,Poland,52.7333,23.5667,Hospital,Private,Tiaracil,Antipiretics,3.0,162,486.0,July,2018,Morris Garcia,Tracy Banks,Bravo,Low
Stehr-Champlin  ,"Kilback, Beer and Batz Pharma Plc",Kutno,Poland,52.2333,19.3667,Pharmacy,Retail,Cogxone Levanide,Antimalarial,10.0,686,6860.0,July,2018,Steve Pepple,Tracy Banks,Bravo,Low
Stehr-Champlin  ,Cassin PLC Pharmacy,Miastko,Poland,54.0,16.9833,Hospital,Private,Proderal,Antiseptics,6.0,34,204.0,July,2018,Morris Garcia,Tracy Banks,Bravo,Low
Stehr-Champlin  ,"Zieme, Doyle and Kunze ",Lublin,Poland,51.2333,22.5667,Hospital,Private,Ribabyclor,Antiseptics,20.0,469,9380.0,July,2018,Morris Garcia,Tracy Banks,Bravo,Medium
Smith Inc ,Kertzmann-Ward Pharma Plc,Opoczno,Poland,51.3833,20.2833,Pharmacy,Institution,Dexacilin Triline,Analgesics,3.0,129,387.0,July,2018,Abigail Thompson,Tracy Banks,Bravo,Low
Stehr-Champlin  ,Rohan Inc ,Chojnów,Poland,51.2667,15.9333,Pharmacy,Institution,Ergomethate,Mood Stabilizers,20.0,604,12080.0,July,2018,Sheila Stones,Britanny Bold,Delta,Medium
Smith Inc ,"Upton, Abernathy and Goodwin Pharmaceutical Ltd",Jarosław,Poland,50.0162,22.6778,Hospital,Government,Nevanide Actozide,Antibiotics,20.0,773,15460.0,July,2018,Abigail Thompson,Tracy Banks,Bravo,Medium
Cassin  ,"Spinka, Schowalter and Conn Pharmaceutical Limited",Biłgoraj,Poland,50.55,22.7333,Pharmacy,Institution,Allomenda,Antipiretics,20.0,487,9740.0,July,2018,Morris Garcia,Tracy Banks,Bravo,Medium
Prohaska-Kuhic ,Hayes-Kilback Pharmaceutical Ltd,Żary,Poland,51.6333,15.1333,Pharmacy,Retail,Acelimus,Analgesics,90.0,746,67140.0,July,2018,Jimmy Grey,Alisha Cordwell,Charlie,High
Beier  ,Leuschke PLC Pharmacy,Ciechanów,Poland,52.8817,20.6106,Pharmacy,Retail,Menogine,Antiseptics,2.0,742,1484.0,August,2018,Abigail Thompson,Tracy Banks,Bravo,Low
Stehr-Champlin  ,Okuneva-Corkery ,Kostrzyn nad Odrą,Poland,52.5883,14.6667,Hospital,Government,Zyvance,Analgesics,5.0,323,1615.0,August,2018,Steve Pepple,Tracy Banks,Bravo,Low
Stehr-Champlin  ,Funk PLC Pharmaceutical Limited,Mikołów,Poland,50.171,18.9041,Hospital,Government,Formolovir Amanferon,Analgesics,10.0,191,1910.0,August,2018,Sheila Stones,Britanny Bold,Delta,Low
Stehr-Champlin  ,Kertzmann-Ward Pharma Plc,Opoczno,Poland,51.3833,20.2833,Pharmacy,Institution,Oxymotroban Fexoformin,Analgesics,80.0,458,36640.0,August,2018,Alan Ray,James Goodwill,Alfa,High
Cassin  ,"Yundt, Leuschke and Ward Pharmaceutical Ltd",Żychlin,Poland,52.2453,19.6236,Hospital,Government,Sevotrana Tiafoxin,Analgesics,50.0,460,23000.0,August,2018,Stella Given,Alisha Cordwell,Charlie,Medium
Stehr-Champlin  ,"Steuber, Skiles and Kilback Pharma Plc",Sosnowiec,Poland,50.3,19.1667,Pharmacy,Retail,Microroban Afatigomar,Antimalarial,10.0,478,4780.0,August,2018,Steve Pepple,Tracy Banks,Bravo,Low
Prohaska-Kuhic ,Feest-Kshlerin Pharmaceutical Ltd,Świdnik,Poland,51.2333,22.7,Pharmacy,Institution,Afretosine,Mood Stabilizers,10.0,404,4040.0,August,2018,Mary Gerrard,Britanny Bold,Delta,Low
Stehr-Champlin  ,Prohaska-Kuhic Pharmacy,Wisła,Poland,49.6667,18.8667,Pharmacy,Institution,Allomenda,Antipiretics,20.0,487,9740.0,August,2018,Sheila Stones,Britanny Bold,Delta,Medium
Beier  ,Bosco-Marquardt Pharm,Lębork,Poland,54.55,17.75,Hospital,Private,Antilamin Clinbital,Antibiotics,100.0,664,66400.0,August,2018,Abigail Thompson,Tracy Banks,Bravo,High
Smith Inc ,Purdy Ltd Pharmaceutical Limited,Głuchołazy,Poland,50.3131,17.3742,Hospital,Government,Aldevac,Analgesics,1.0,26,26.0,August,2018,Mary Gerrard,Britanny Bold,Delta,Low
Beier  ,Feest-Roob Pharmaceutical Ltd,Wolsztyn,Poland,52.1167,16.1167,Pharmacy,Institution,Fosinofen,Antipiretics,1.0,385,385.0,August,2018,Erica Jones,James Goodwill,Alfa,Low
Stehr-Champlin  ,Lockman Ltd ,Połaniec,Poland,50.433299999999996,21.2833,Pharmacy,Institution,Aciprex,Antipiretics,50.0,421,21050.0,August,2018,Morris Garcia,Tracy Banks,Bravo,Medium
Smith Inc ,Schaden-Hirthe Pharmaceutical Ltd,Świdnica,Poland,50.8438,16.4886,Pharmacy,Institution,Formolovir Amanferon,Analgesics,110.0,191,21010.0,August,2018,Jessica Smith,Britanny Bold,Delta,Medium
Smith Inc ,"Johnson, Friesen and Torphy Pharma Plc",Gryfino,Poland,53.2524,14.4883,Hospital,Government,Cephozumab Synmethate,Antibiotics,100.0,768,76800.0,August,2018,Abigail Thompson,Tracy Banks,Bravo,High
Smith Inc ,Will and Sons Pharma Plc,Gniew,Poland,53.8333,18.8333,Pharmacy,Retail,Afaxacin,Analgesics,102.0,60,6120.0,August,2018,Alan Ray,James Goodwill,Alfa,Low
Smith Inc ,Breitenberg-Kuhn Pharmacy,Radom,Poland,51.4036,21.1567,Hospital,Private,Requimadin,Antimalarial,20.0,408,8160.0,August,2018,Morris Garcia,Tracy Banks,Bravo,Medium
Smith Inc ,"Bogan, Jacobs and Kris Pharmacy",Lubartów,Poland,51.4667,22.6,Pharmacy,Institution,Ranediol,Antibiotics,20.0,401,8020.0,August,2018,Thompson Crawford,James Goodwill,Alfa,Medium
Beier  ,"Haag, Bradtke and Terry Pharmacy",Biała Podlaska,Poland,52.0333,23.1167,Hospital,Government,Tetalamide,Antibiotics,20.0,430,8600.0,August,2018,Alan Ray,James Goodwill,Alfa,Medium
Beier  ,"Herman, Rice and Rippin ",Ziębice,Poland,50.6,17.0444,Hospital,Government,Cogxone Levanide,Antimalarial,146.0,686,100156.0,August,2018,Daniel Gates,Alisha Cordwell,Charlie,High
Stehr-Champlin  ,Zemlak-Witting Pharmacy,Międzyrzecz,Poland,52.4446,15.578,Pharmacy,Institution,Alarudin Azarolac,Mood Stabilizers,20.0,567,11340.0,August,2018,Jimmy Grey,Alisha Cordwell,Charlie,Medium
Smith Inc ,Mills Inc Pharma Plc,Bydgoszcz,Poland,53.1167,18.0,Hospital,Private,Dexmeprazole Transnuvia,Mood Stabilizers,10.0,180,1800.0,August,2018,Jimmy Grey,Alisha Cordwell,Charlie,Low
Beier  ,Rohan Inc ,Chojnów,Poland,51.2667,15.9333,Pharmacy,Institution,Oxymotroban Fexoformin,Analgesics,30.0,458,13740.0,August,2018,Thompson Crawford,James Goodwill,Alfa,Medium
Cassin  ,Schaden-Hirthe Pharmaceutical Ltd,Świdnica,Poland,50.8438,16.4886,Pharmacy,Institution,Spiroderall,Mood Stabilizers,20.0,653,13060.0,August,2018,Sheila Stones,Britanny Bold,Delta,Medium
Smith Inc ,Zemlak Group Pharmaceutical Limited,Koszalin,Poland,54.1903,16.1817,Hospital,Private,Tetratanyl,Antimalarial,96.0,511,49056.0,August,2018,Erica Jones,James Goodwill,Alfa,High
Stehr-Champlin  ,Doyle-Tillman Pharmaceutical Ltd,Dęblin,Poland,51.5667,21.8614,Hospital,Private,Eproline,Antibiotics,3.0,780,2340.0,August,2018,Erica Jones,James Goodwill,Alfa,Low
Beier  ,Rohan Inc ,Chojnów,Poland,51.2667,15.9333,Pharmacy,Institution,Abobozolid,Antimalarial,146.0,75,10950.0,August,2018,Morris Garcia,Tracy Banks,Bravo,Medium
Rohan   ,Kling Inc Pharmaceutical Ltd,Ostrowiec Świętokrzyski,Poland,50.9333,21.4,Pharmacy,Institution,Interzide,Antimalarial,5.0,420,2100.0,August,2018,Abigail Thompson,Tracy Banks,Bravo,Low
Smith Inc ,Buckridge-Strosin Pharmaceutical Limited,Pruszków,Poland,52.1667,20.8,Hospital,Government,Primapion,Antibiotics,4.0,492,1968.0,August,2018,Jessica Smith,Britanny Bold,Delta,Low
Smith Inc ,"Steuber, Skiles and Kilback Pharma Plc",Sosnowiec,Poland,50.3,19.1667,Pharmacy,Retail,Aquamycin Lacoran,Analgesics,20.0,345,6900.0,August,2018,Jimmy Grey,Alisha Cordwell,Charlie,Low
Smith Inc ,"Sanford, Franecki and Greenholt ",Nowa Sól,Poland,51.8,15.7167,Pharmacy,Institution,Ketastadil,Analgesics,1.0,763,763.0,August,2018,Jessica Smith,Britanny Bold,Delta,Low
Cassin  ,"McClure, Zemlak and Dibbert Pharmaceutical Limited",Kórnik,Poland,52.2367,17.0986,Hospital,Private,Zonixamine Immulinum,Analgesics,5.0,298,1490.0,August,2018,Alan Ray,James Goodwill,Alfa,Low
Stehr-Champlin  ,Bashirian-Kassulke Pharma Plc,Kraków,Poland,50.0614,19.9372,Hospital,Private,Malaxolol Aeroprosyn,Antiseptics,3.0,502,1506.0,August,2018,Abigail Thompson,Tracy Banks,Bravo,Low
Beier  ,Will and Sons Pharma Plc,Gniew,Poland,53.8333,18.8333,Pharmacy,Retail,Diazemid Felcept,Analgesics,15.0,613,9195.0,August,2018,Anne Wu,Britanny Bold,Delta,Medium
Cassin  ,Romaguera-Fay Pharmaceutical Limited,Trzemeszno,Poland,52.5614,17.8231,Pharmacy,Retail,Propralamide Dexlanzolam,Mood Stabilizers,10.0,391,3910.0,August,2018,Alan Ray,James Goodwill,Alfa,Low
Smith Inc ,Schaefer LLC Pharmacy,Kamień Pomorski,Poland,53.96970000000001,14.7858,Hospital,Government,Relenstrel Exurabine,Antibiotics,20.0,424,8480.0,August,2018,Alan Ray,James Goodwill,Alfa,Medium
Cassin  ,Steuber Ltd Pharmacy,Ostrołęka,Poland,53.0833,21.5667,Hospital,Private,Alisteride Pemidizem,Antiseptics,50.0,35,1750.0,August,2018,Mary Gerrard,Britanny Bold,Delta,Low
Stehr-Champlin  ,Ward Group Pharmaceutical Limited,Zabrze,Poland,50.3,18.7833,Pharmacy,Institution,Zonixamine Immulinum,Analgesics,90.0,298,26820.0,August,2018,Steve Pepple,Tracy Banks,Bravo,High
Beier  ,"Kilback, Beer and Batz Pharma Plc",Kutno,Poland,52.2333,19.3667,Pharmacy,Retail,Abilovir Aprotasol,Antipiretics,30.0,269,8070.0,August,2018,Daniel Gates,Alisha Cordwell,Charlie,Medium
Prohaska-Kuhic ,"Kuphal, D'Amore and Bode Pharmaceutical Ltd",Szczecin,Poland,53.4247,14.5553,Pharmacy,Retail,Albuterenone,Antimalarial,120.0,82,9840.0,August,2018,Daniel Gates,Alisha Cordwell,Charlie,Medium
Stehr-Champlin  ,"Sanford, Franecki and Greenholt ",Nowa Sól,Poland,51.8,15.716699999999998,Pharmacy,Institution,Aclonuma,Antimalarial,40.0,474,18960.0,August,2018,Jimmy Grey,Alisha Cordwell,Charlie,Medium
Smith Inc ,Buckridge-Davis ,Legnica,Poland,51.2101,16.1619,Hospital,Private,Interzide,Antimalarial,2.0,420,840.0,August,2018,Mary Gerrard,Britanny Bold,Delta,Low
Stehr-Champlin  ,Lesch PLC Pharmaceutical Ltd,Głuszyca,Poland,50.6874,16.3717,Pharmacy,Retail,Tetalamide,Antibiotics,5.0,430,2150.0,August,2018,Jimmy Grey,Alisha Cordwell,Charlie,Low
Prohaska-Kuhic ,Bosco-Marquardt Pharm,Lębork,Poland,54.55,17.75,Hospital,Private,Topipizole,Mood Stabilizers,4.0,368,1472.0,August,2018,Stella Given,Alisha Cordwell,Charlie,Low
Cassin  ,Bartoletti-Altenwerth ,Police,Poland,53.55,14.5708,Hospital,Government,Topipizole,Mood Stabilizers,20.0,368,7360.0,August,2018,Sheila Stones,Britanny Bold,Delta,Low
Cassin  ,Trantow LLC Pharma Plc,Braniewo,Poland,54.3833,19.8333,Pharmacy,Retail,Acubulin,Antipiretics,3.0,490,1470.0,August,2018,Steve Pepple,Tracy Banks,Bravo,Low
Smith Inc ,Bayer LLC Pharmaceutical Ltd,Bytów,Poland,54.1667,17.5,Hospital,Private,Victomine,Antimalarial,1.0,705,705.0,August,2018,Jessica Smith,Britanny Bold,Delta,Low
Stehr-Champlin  ,Hermiston LLC ,Strzegom,Poland,51.0,16.3333,Pharmacy,Institution,Rositroban,Mood Stabilizers,6.0,481,2886.0,August,2018,Daniel Gates,Alisha Cordwell,Charlie,Low
Beier  ,Feest-Roob Pharmaceutical Ltd,Wolsztyn,Poland,52.1167,16.1167,Pharmacy,Institution,Propratecan,Antimalarial,5.0,682,3410.0,August,2018,Mary Gerrard,Britanny Bold,Delta,Low
Stehr-Champlin  ,Hill Ltd ,Gliwice,Poland,50.2976,18.6766,Pharmacy,Retail,Diazemid Felcept,Analgesics,40.0,613,24520.0,August,2018,Morris Garcia,Tracy Banks,Bravo,High
Beier  ,"Schowalter, Runolfsson and VonRueden Pharmaceutical Ltd",Grudziądz,Poland,53.4925,18.7761,Pharmacy,Retail,Alimmethate Insudase,Analgesics,40.0,624,24960.0,August,2018,Jimmy Grey,Alisha Cordwell,Charlie,High
Rohan   ,"Parisian, Hagenes and Skiles Pharma Plc",Ciechocinek,Poland,52.8833,18.7833,Pharmacy,Retail,Adtiza Gammaluble,Antibiotics,2.0,452,904.0,August,2018,Morris Garcia,Tracy Banks,Bravo,Low
Smith Inc ,Ritchie-Rodriguez Pharm,Łuków,Poland,51.9167,22.3833,Pharmacy,Retail,Brimorix Amonine,Antibiotics,3.0,398,1194.0,August,2018,Erica Jones,James Goodwill,Alfa,Low
Smith Inc ,Runte-Marquardt Pharmaceutical Ltd,Olecko,Poland,54.0333,22.5,Hospital,Private,Asparathasone Unipan,Antibiotics,6.0,153,918.0,August,2018,Erica Jones,James Goodwill,Alfa,Low
Beier  ,Rowe PLC Pharmaceutical Ltd,Kęty,Poland,49.8821,19.2233,Pharmacy,Institution,Lacoplex Hyaluvance,Mood Stabilizers,50.0,334,16700.0,August,2018,Morris Garcia,Tracy Banks,Bravo,Medium
Prohaska-Kuhic ,"Haag, Bradtke and Terry Pharmacy",Biała Podlaska,Poland,52.0333,23.1167,Hospital,Government,Doxivorin,Antimalarial,20.0,516,10320.0,August,2018,Steve Pepple,Tracy Banks,Bravo,Medium
Stehr-Champlin  ,Koch-Osinski Pharm,Sandomierz,Poland,50.6833,21.75,Hospital,Government,Choriogestrel,Antiseptics,2.0,347,694.0,August,2018,Erica Jones,James Goodwill,Alfa,Low
Prohaska-Kuhic ,Veum-Kerluke Pharmacy,Człuchów,Poland,53.65,17.3667,Pharmacy,Retail,Malavirine Alimdine,Mood Stabilizers,5.0,767,3835.0,August,2018,Abigail Thompson,Tracy Banks,Bravo,Low
Prohaska-Kuhic ,Hermiston and Sons Pharma Plc,Bochnia,Poland,49.9833,20.4333,Pharmacy,Institution,Temasone Thiobucil,Antimalarial,150.0,482,72300.0,August,2018,Sheila Stones,Britanny Bold,Delta,High
Stehr-Champlin  ,Okuneva-Corkery ,Kostrzyn nad Odrą,Poland,52.5883,14.6667,Hospital,Government,Quixitriptan Alanesin,Antiseptics,90.0,79,7110.0,August,2018,Mary Gerrard,Britanny Bold,Delta,Low
Stehr-Champlin  ,Moore PLC Pharmaceutical Ltd,Łomża,Poland,53.1833,22.0833,Pharmacy,Retail,Duraprazole Agalsixolol,Antiseptics,20.0,375,7500.0,August,2018,Jessica Smith,Britanny Bold,Delta,Low
Smith Inc ,"Balistreri, Torp and Gulgowski Pharmacy",Chełmża,Poland,53.2,18.6,Hospital,Private,Relenstrel Exurabine,Antibiotics,4.0,424,1696.0,August,2018,Jimmy Grey,Alisha Cordwell,Charlie,Low
Prohaska-Kuhic ,Barrows Inc ,Hajnówka,Poland,52.7333,23.5667,Hospital,Private,Fentatrol Rapatelase,Antibiotics,20.0,458,9160.0,August,2018,Anne Wu,Britanny Bold,Delta,Medium
Smith Inc ,Kozey-Schroeder ,Jawor,Poland,51.05,16.1833,Hospital,Private,Secrelazine Insonamic,Antipiretics,30.0,694,20820.0,August,2018,Daniel Gates,Alisha Cordwell,Charlie,Medium
Stehr-Champlin  ,Lockman Ltd ,Połaniec,Poland,50.4333,21.2833,Pharmacy,Institution,Agalsiline,Mood Stabilizers,1.0,64,64.0,August,2018,Jimmy Grey,Alisha Cordwell,Charlie,Low
Smith Inc ,"Schowalter, Runolfsson and VonRueden Pharmaceutical Ltd",Grudziądz,Poland,53.4925,18.7761,Pharmacy,Retail,Clindaracil,Analgesics,4.0,173,692.0,August,2018,Mary Gerrard,Britanny Bold,Delta,Low
Prohaska-Kuhic ,Schaefer-Rolfson ,Niepołomice,Poland,50.0339,20.2172,Hospital,Private,Pulmogen Alitora,Antiseptics,3.0,647,1941.0,August,2018,Jimmy Grey,Alisha Cordwell,Charlie,Low
Beier  ,Crist Inc ,Stary Sącz,Poland,49.5625,20.6364,Hospital,Private,Ionclotide,Analgesics,20.0,631,12620.0,August,2018,Jessica Smith,Britanny Bold,Delta,Medium
Beier  ,Torp-Fisher Pharma Plc,Gorlice,Poland,49.6556,21.1604,Hospital,Government,Kiovax Tercorolac,Analgesics,10.0,722,7220.0,August,2018,Steve Pepple,Tracy Banks,Bravo,Low
Smith Inc ,"Crist, Wisoky and Nolan Pharmaceutical Ltd",Toruń,Poland,53.0167,18.6167,Pharmacy,Retail,Lansopril Acribax,Antipiretics,20.0,492,9840.0,August,2018,Steve Pepple,Tracy Banks,Bravo,Medium
Rohan   ,"Nolan, DuBuque and Schultz Pharm",Wałbrzych,Poland,50.7667,16.2833,Hospital,Government,Eproline,Antibiotics,20.0,780,15600.0,August,2018,Daniel Gates,Alisha Cordwell,Charlie,Medium
Stehr-Champlin  ,"Grimes, Jacobs and Durgan Pharm",Bełchatów,Poland,51.3667,19.3667,Hospital,Private,Quiniprosyn,Antiseptics,12.0,445,5340.0,August,2018,Sheila Stones,Britanny Bold,Delta,Low
Prohaska-Kuhic ,Mraz-Kutch Pharm,Bieruń Stary,Poland,50.0897,19.0928,Pharmacy,Retail,Alarudin Azarolac,Mood Stabilizers,20.0,567,11340.0,August,2018,Jessica Smith,Britanny Bold,Delta,Medium
Beier  ,Haley PLC Pharmaceutical Limited,Opole,Poland,50.6722,17.9253,Pharmacy,Retail,Dorzovorin Pentadarone,Antimalarial,36.0,164,5904.0,August,2018,Abigail Thompson,Tracy Banks,Bravo,Low
Smith Inc ,"Kertzmann, Quitzon and Harris Pharma Plc",Reszel,Poland,54.0504,21.1458,Hospital,Government,Hydroxyprosyn,Antibiotics,2.0,220,440.0,August,2018,Morris Garcia,Tracy Banks,Bravo,Low
Prohaska-Kuhic ,Kozey-Schroeder ,Jawor,Poland,51.05,16.1833,Hospital,Private,Albudazole Erobloc,Antiseptics,480.0,563,270240.0,August,2018,Morris Garcia,Tracy Banks,Bravo,High
Smith Inc ,Botsford PLC Pharmacy,Pabianice,Poland,51.6642,19.35,Pharmacy,Institution,Adrecetam Barazoxane,Antimalarial,2.0,24,48.0,August,2018,Jessica Smith,Britanny Bold,Delta,Low
Stehr-Champlin  ,Streich PLC Pharmaceutical Limited,Przemyśl,Poland,49.785,22.7673,Pharmacy,Institution,Tracdomide,Antipiretics,40.0,548,21920.0,August,2018,Erica Jones,James Goodwill,Alfa,Medium
Rohan   ,Koch-Osinski Pharm,Sandomierz,Poland,50.6833,21.75,Hospital,Government,Primatate Univatol,Mood Stabilizers,50.0,172,8600.0,August,2018,Daniel Gates,Alisha Cordwell,Charlie,Medium
Prohaska-Kuhic ,Barton Ltd Pharma Plc,Czeladź,Poland,50.3333,19.0833,Hospital,Private,Fentalac,Antipiretics,324.0,618,200232.0,August,2018,Alan Ray,James Goodwill,Alfa,High
Stehr-Champlin  ,Heller-Abernathy ,Brzeg Dolny,Poland,51.273,16.7081,Hospital,Private,Flutacerol,Analgesics,2.0,745,1490.0,August,2018,Abigail Thompson,Tracy Banks,Bravo,Low
Beier  ,Funk and Sons Pharmaceutical Limited,Tarnobrzeg,Poland,50.5833,21.6833,Pharmacy,Retail,Enzastryl,Antiseptics,20.0,26,520.0,August,2018,Morris Garcia,Tracy Banks,Bravo,Low
Prohaska-Kuhic ,Leannon-West Pharmacy,Cieszyn,Poland,49.75,18.6333,Pharmacy,Retail,Comzyme,Antibiotics,5.0,114,570.0,August,2018,Morris Garcia,Tracy Banks,Bravo,Low
