Distributor,Customer Name,City,Country,Latitude,Longitude,Channel,Sub-channel,Product Name,Product Class,Quantity,Price,Sales,Month,Year,Name of Sales Rep,Manager,Sales Team,Sales_Level
Prohaska-Kuhic ,"Wunsch, Mills and Walter ",Kielce,Poland,50.8725,,Pharmacy,Institution,Tacrodomide,Antipiretics,10,420,4200,January,2018,Stella Given,Alisha Cordwell,Charlie,Low
Cassin  ,Block-Romaguera Pharmaceutical Limited,Tarnowskie Góry,Poland,50.45,18.8667,Hospital,Private,Finanel,Antimalarial,20,206,4120,January,2018,Sheila Stones,Britanny Bold,Delta,Low
Smith Inc ,Doyle-Tillman Pharmaceutical Ltd,Dęblin,Poland,51.5667,21.8614,Hospital,Private,Tacrodomide,Antipiretics,2,420,840,January,2018,Stella Given,Alisha Cordwell,Charlie,Low
Carter-Conn  ,Jast-Cruickshank Pharma Plc,Białystok,Poland,53.1167,23.1667,Pharmacy,Retail,Sevotrana Tiafoxin,Analgesics,50,460,23000,January,2018,Abigail Thompson,,Bravo,Medium
Gottlieb-Cruickshank  ,Will and Sons Pharmaceutical Limited,Poznań,Poland,52.4,16.9167,Hospital,Government,Afretosine,Mood Stabilizers,120,404,48480,January,2018,Stella Given,Alisha Cordwell,Charlie,High
Gottlieb-Cruickshank  ,Schaden-Hirthe Pharmaceutical Ltd,Świdnica,Poland,50.8438,16.4886,Pharmacy,Institution,Albudazole Erobloc,Antiseptics,1,563,563,January,2018,Jimmy Grey,Alisha Cordwell,Charlie,Low
Gottlieb-Cruickshank  ,Carter-Conn Pharma Plc,Brwinów,Poland,52.1417,20.7167,Hospital,Private,Magnemunex,Antiseptics,5,689,3445,January,2018,Sheila Stones,Britanny Bold,Delta,Low
Gottlieb-Cruickshank  ,Hill Ltd ,Gliwice,Poland,50.2976,18.6766,Pharmacy,Retail,Rebedase Aplencor,Mood Stabilizers,100,180,18000,January,2018,Sheila Stones,Britanny Bold,Delta,Medium
Gottlieb-Cruickshank  ,Senger-Kirlin Pharmacy,Kobyłka,Poland,52.3395,21.1959,Hospital,Government,Aprerase,Antipiretics,,726,2178,January,2018,Steve Pepple,Tracy Banks,Bravo,Medium
Prohaska-Kuhic ,Mante-Grady Pharm,Lubaczów,Poland,50.1556,23.123,Pharmacy,Institution,Sanctumine,Antimalarial,3,149,447,January,2018,Erica Jones,James Goodwill,Alfa,Low
Prohaska-Kuhic ,Okuneva-Corkery ,Kostrzyn nad Odrą,Poland,52.5883,14.6667,Hospital,Government,Comzyme,Antibiotics,4,114,456,January,2018,Stella Given,Alisha Cordwell,Charlie,Low
Cassin  ,Nader-Gaylord Pharmaceutical Limited,Sobótka,Poland,50.8986,16.7444,Hospital,Private,Aggretisol,Antimalarial,6,262,1572,January,2018,Alan Ray,James Goodwill,Alfa,Low
Carter-Conn  ,"Balistreri, Torp and Gulgowski Pharmacy",Chełmża,Poland,53.2,18.6,Hospital,Private,Diprotaine,Antiseptics,40,318,12720,January,2018,Alan Ray,James Goodwill,Alfa,Medium
Prohaska-Kuhic ,Lindgren-Simonis Pharm,Biskupiec,Poland,53.8647,20.9569,Pharmacy,Retail,Afluferon Entrarenone,Antimalarial,5,104,,January,2018,Mary Gerrard,,Delta,Low
Prohaska-Kuhic ,"Denesik, Walter and Beatty Pharma Plc",Ostrów Mazowiecka,Poland,52.8,21.9,Pharmacy,Institution,Sumanazole,Analgesics,100,529,52900,January,2018,Sheila Stones,Britanny Bold,Delta,High
Smith Inc ,Ondricka Ltd Pharmacy,Świnoujście,Poland,53.9167,14.25,Hospital,Government,Exotropin Empizine,Mood Stabilizers,2,785,1570,January,2018,Anne Wu,Britanny Bold,Delta,Low
Beier  ,Prohaska-Kuhic Pharmacy,Wisła,Poland,49.6667,18.8667,Pharmacy,Institution,Feruprazole,Mood Stabilizers,5,115,575,January,2018,Anne Wu,Britanny Bold,Delta,Low
Beier  ,Hermiston LLC ,Strzegom,Poland,51,16.3333,Pharmacy,Institution,Travoloride,Antiseptics,30,785,23550,January,2018,Anne Wu,Britanny Bold,Delta,Medium
Gottlieb-Cruickshank  ,Hermiston LLC ,Strzegom,Poland,51,16.3333,Pharmacy,Institution,Cyclovital,Antimalarial,30,677,20310,January,2018,Anne Wu,Britanny Bold,Delta,Medium
Schuppe Inc ,Spencer-Jerde Pharmacy,Przeworsk,Poland,,22.4941,Pharmacy,Institution,Travosoline Capolac,Antipiretics,3,610,1830,January,2018,Mary Gerrard,Britanny Bold,Delta,Low
Gottlieb-Cruickshank  ,Emard-O'Connell Pharmacy,Zakopane,Poland,,19.9519,Pharmacy,Retail,Acelimus,Analgesics,1,746,,January,2018,Sheila Stones,Britanny Bold,Delta,Low
Gottlieb-Cruickshank  ,"Herman, Rice and Rippin ",Ziębice,Poland,50.6,17.0444,Hospital,Government,Presetron,Mood Stabilizers,30,216,6480,January,2018,Stella Given,Alisha Cordwell,Charlie,Low
Beier  ,Romaguera-Fay Pharmaceutical Limited,Trzemeszno,Poland,52.5614,17.8231,Pharmacy,Retail,Lansopril Acribax,Antipiretics,36,492,17712,January,2018,Alan Ray,James Goodwill,Alfa,Medium
Gottlieb-Cruickshank  ,Jast-Cruickshank Pharma Plc,Białystok,Poland,,23.1667,Pharmacy,Retail,Panpion,Antiseptics,1,692,692,January,2018,Sheila Stones,Britanny Bold,Delta,Low
Smith Inc ,Hansen Group Pharm,Gryfów Śląski,Poland,51.0308,15.4202,Hospital,Private,Albudazole Erobloc,Antiseptics,4,563,2252,January,2018,Anne Wu,Britanny Bold,Delta,Low
Prohaska-Kuhic ,Nader-Borer Pharma Plc,Bielawa,Poland,50.6908,16.623,Pharmacy,Retail,Adriacaine,Mood Stabilizers,10,361,3610,January,2018,Abigail Thompson,,Bravo,Low
Gottlieb-Cruickshank  ,Crist Inc ,Stary Sącz,Poland,49.5625,20.6364,Hospital,Private,Angioparin Brimosumab,Mood Stabilizers,2,682,1364,January,2018,Daniel Gates,Alisha Cordwell,Charlie,Low
Smith Inc ,Buckridge-Davis ,Legnica,Poland,51.2101,16.1619,Hospital,Private,Cephovelam,Mood Stabilizers,4,542,2168,January,2018,,Britanny Bold,Delta,Low
Smith Inc ,"Beer, Kohler and Beatty Pharmaceutical Ltd",Rypin,Poland,53.0667,19.45,Pharmacy,Retail,Diprolimus,Antiseptics,20,634,12680,January,2018,Erica Jones,James Goodwill,Alfa,Medium
Gottlieb-Cruickshank  ,Bayer LLC Pharmaceutical Ltd,Bytów,Poland,54.1667,17.5,Hospital,Private,Methiclotide,Antibiotics,4,458,1832,January,2018,Mary Gerrard,Britanny Bold,Delta,Low
Smith Inc ,Lemke Ltd Pharm,Tarnów,Poland,50.0125,20.9883,Hospital,Private,Rositroban,Mood Stabilizers,40,481,19240,January,2018,Morris Garcia,Tracy Banks,Bravo,Medium
Gottlieb-Cruickshank  ,"Johnson, Friesen and Torphy Pharma Plc",Gryfino,Poland,53.2524,14.4883,Hospital,Government,Rebedase Aplencor,Mood Stabilizers,1,180,180,January,2018,Sheila Stones,Britanny Bold,Delta,Low
Prohaska-Kuhic ,"Beahan, Littel and Ondricka Pharmacy",Łęczyca,Poland,52.0583,19.2,Pharmacy,Institution,Insozyme,Antiseptics,2,655,,January,2018,Alan Ray,James Goodwill,Alfa,Low
Prohaska-Kuhic ,Parisian Ltd Pharm,Jelenia Góra,Poland,50.9,15.7333,Pharmacy,Institution,Diazemid Felcept,Analgesics,2,613,1226,January,2018,Jessica Smith,Britanny Bold,Delta,Low
Gottlieb-Cruickshank  ,"Bogan, Jacobs and Kris Pharmacy",Lubartów,Poland,51.4667,22.6,Pharmacy,Institution,Microroban Afatigomar,Antimalarial,1,478,478,January,2018,Mary Gerrard,Britanny Bold,Delta,Low
Smith Inc ,Haley PLC Pharmaceutical Limited,Opole,Poland,50.6722,17.9253,Pharmacy,Retail,Xenaminphen,Antimalarial,24,195,4680,January,2018,Jessica Smith,Britanny Bold,Delta,Low
Smith Inc ,Veum-Kerluke Pharmacy,Człuchów,Poland,53.65,17.3667,Pharmacy,Retail,Cricane Acamsumab,Antiseptics,20,22,440,January,2018,Abigail Thompson,Tracy Banks,Bravo,Low
Prohaska-Kuhic ,Balistreri-Watsica Pharmacy,Ełk,Poland,53.8167,22.35,Pharmacy,Retail,Bexridol,Antipiretics,4,80,320,January,2018,Morris Garcia,,Bravo,Low
Gottlieb-Cruickshank  ,"Upton, Abernathy and Goodwin Pharmaceutical Ltd",Jarosław,Poland,50.0162,22.6778,Hospital,Government,Lansopril Acribax,Antipiretics,12,492,5904,January,2018,Jessica Smith,Britanny Bold,Delta,Low
Smith Inc ,Balistreri-Watsica Pharmacy,Ełk,Poland,53.8167,22.35,Pharmacy,Retail,Symdocet,Antipiretics,200,470,94000,January,2018,Thompson Crawford,James Goodwill,Alfa,High
Gottlieb-Cruickshank  ,"Moen, Murazik and Smith ",Siedlce,Poland,52.1833,22.2833,Pharmacy,Retail,Aquamycin Lacoran,Analgesics,2,345,690,January,2018,Stella Given,Alisha Cordwell,Charlie,Low
Gottlieb-Cruickshank  ,"Wunsch, Mills and Walter ",Kielce,Poland,50.8725,20.6319,Pharmacy,Institution,Ampinonide,Antimalarial,4,248,992,January,2018,Anne Wu,,Delta,Low
Prohaska-Kuhic ,Hermiston and Sons Pharma Plc,Bochnia,Poland,49.9833,,Pharmacy,Institution,Penitrana,Analgesics,54,179,9666,January,2018,Morris Garcia,Tracy Banks,Bravo,Medium
Gottlieb-Cruickshank  ,"Reynolds, Jast and Mante Pharma Plc",Pleszew,Poland,51.8974,17.7856,Pharmacy,Institution,Adtiza Gammaluble,Antibiotics,4,452,1808,January,2018,Thompson Crawford,James Goodwill,Alfa,Low
Gottlieb-Cruickshank  ,Schaefer Group Pharmaceutical Limited,Ustroń,Poland,49.7167,18.8167,Hospital,Government,Acubulin,Antipiretics,24,490,11760,January,2018,,Britanny Bold,Delta,Medium
Prohaska-Kuhic ,Emard-O'Connell Pharmacy,Zakopane,Poland,49.2994,19.9519,Pharmacy,Retail,Lioletine Refliruvax,Analgesics,10,435,4350,January,2018,Thompson Crawford,James Goodwill,Alfa,Low
Prohaska-Kuhic ,Ritchie-Rodriguez Pharm,Łuków,Poland,,22.3833,Pharmacy,Retail,Lactubucil,Antipiretics,5,585,2925,January,2018,Mary Gerrard,Britanny Bold,Delta,Low
Prohaska-Kuhic ,Feest-Kshlerin Pharmaceutical Ltd,Świdnik,Poland,51.2333,22.7,Pharmacy,Institution,Liomulin,Mood Stabilizers,2,490,980,January,2018,Thompson Crawford,,Alfa,Low
Beier  ,"Moen, Murazik and Smith ",Siedlce,Poland,52.1833,22.2833,Pharmacy,Retail,Algluconium Dorzofoxin,Antibiotics,20,611,12220,January,2018,Anne Wu,Britanny Bold,Delta,Medium
Smith Inc ,Botsford PLC Pharmacy,Pabianice,Poland,51.6642,19.35,Pharmacy,Institution,Antilamin Clinbital,Antibiotics,10,664,6640,January,2018,Stella Given,Alisha Cordwell,Charlie,Low
Rohan   ,Kunze PLC Pharm,Darłowo,Poland,54.4167,16.4167,Hospital,Private,Palodizem,Mood Stabilizers,12,201,2412,January,2018,,James Goodwill,Alfa,Low
Cassin  ,Buckridge-Davis ,Legnica,Poland,51.2101,16.1619,Hospital,Private,Ergomethate,Mood Stabilizers,10,604,,January,2018,Daniel Gates,Alisha Cordwell,Charlie,Low
Prohaska-Kuhic ,Fritsch-Hauck Pharma Plc,Mysłowice,Poland,50.2333,19.1333,Hospital,Government,Alisteride Pemidizem,Antiseptics,5,35,175,January,2018,Erica Jones,James Goodwill,Alfa,Low
Gottlieb-Cruickshank  ,Kreiger Inc Pharma Plc,Mielec,Poland,50.2833,21.4333,Hospital,Private,Relenvice,Antimalarial,2,459,918,January,2018,Morris Garcia,Tracy Banks,Bravo,Low
Gottlieb-Cruickshank  ,Schulist-Zulauf Pharm,Tychy,Poland,50.1667,19,Hospital,Private,Cricane Acamsumab,Antiseptics,10,22,,January,2018,Erica Jones,James Goodwill,Alfa,Low
Gottlieb-Cruickshank  ,Koch-Osinski Pharm,Sandomierz,Poland,50.6833,,Hospital,Government,Bexridol,Antipiretics,5,80,400,January,2018,Stella Given,Alisha Cordwell,Charlie,Low
Gottlieb-Cruickshank  ,Bayer LLC Pharmaceutical Ltd,Bytów,Poland,54.1667,17.5,Hospital,Private,Adtiza Gammaluble,Antibiotics,6,452,2712,January,2018,Daniel Gates,,Charlie,Low
Gottlieb-Cruickshank  ,Roob PLC ,Świedbodzin,Poland,,15.5333,Pharmacy,Institution,Acantaine,Antibiotics,3,66,198,January,2018,Sheila Stones,Britanny Bold,Delta,Low
Gottlieb-Cruickshank  ,Romaguera-Fay Pharmaceutical Limited,Trzemeszno,Poland,52.5614,17.8231,Pharmacy,Retail,Insozyme,Antiseptics,50,655,,January,2018,Erica Jones,James Goodwill,Alfa,High
Prohaska-Kuhic ,Stehr-Champlin Pharmaceutical Limited,Nowe Miasto Lubawskie,Poland,53.4167,19.5833,Hospital,Government,Abtasol,Antiseptics,2,754,1508,January,2018,Daniel Gates,Alisha Cordwell,Charlie,Low
Cassin  ,"Hirthe, Williamson and Macejkovic Pharma Plc",Brzeg,Poland,50.8667,17.4833,Hospital,Government,Sevotrana Tiafoxin,Analgesics,10,460,,January,2018,Morris Garcia,Tracy Banks,Bravo,Low
Smith Inc ,Schaden-Hirthe Pharmaceutical Ltd,Świdnica,Poland,50.8438,,Pharmacy,Institution,Brimorix Amonine,Antibiotics,2,398,796,January,2018,Daniel Gates,Alisha Cordwell,Charlie,Low
Rohan   ,Rohan Inc ,Chojnów,Poland,51.2667,15.9333,Pharmacy,Institution,Alemtuvatol Megalinum,Analgesics,150,682,102300,January,2018,Sheila Stones,Britanny Bold,Delta,High
Smith Inc ,Runte-Marquardt Pharmaceutical Ltd,Olecko,Poland,54.0333,22.5,Hospital,Private,Lovavatol Azelavarix,Mood Stabilizers,,106,212,January,2018,Abigail Thompson,Tracy Banks,Bravo,Low
Gottlieb-Cruickshank  ,Okuneva-Corkery ,Kostrzyn nad Odrą,Poland,52.5883,14.6667,Hospital,Government,Lactubucil,Antipiretics,1,585,585,January,2018,Stella Given,Alisha Cordwell,Charlie,Low
Gottlieb-Cruickshank  ,Welch-Langworth ,Warsaw,Poland,52.2167,21.0333,Pharmacy,Retail,Menogine,Antiseptics,2,742,1484,January,2018,Thompson Crawford,James Goodwill,Alfa,Low
Beier  ,Lesch PLC Pharmacy,Wrocław,Poland,51.1077,17.0353,Hospital,Private,Robapril,Antipiretics,480,453,,January,2018,Daniel Gates,Alisha Cordwell,Charlie,High
Prohaska-Kuhic ,Denesik-Hintz Pharm,Międzyrzec Podlaski,Poland,51.9833,22.8,Pharmacy,Retail,Neuropogen Empibax,Analgesics,3,605,1815,January,2018,Thompson Crawford,,Alfa,Low
Gottlieb-Cruickshank  ,Bashirian-Kassulke Pharma Plc,Kraków,Poland,50.0614,19.9372,Hospital,Private,Insozyme,Antiseptics,1,655,655,January,2018,Daniel Gates,Alisha Cordwell,Charlie,Low
Cassin  ,"Upton, Abernathy and Goodwin Pharmaceutical Ltd",Jarosław,Poland,50.0162,,Hospital,Government,Primatate Univatol,Mood Stabilizers,30,172,,January,2018,Jimmy Grey,Alisha Cordwell,Charlie,Low
Gottlieb-Cruickshank  ,Kreiger Inc Pharma Plc,Mielec,Poland,50.2833,21.4333,Hospital,Private,Afluferon Entrarenone,Antimalarial,10,104,1040,January,2018,Morris Garcia,Tracy Banks,Bravo,Low
Prohaska-Kuhic ,"Erdman, Senger and Oberbrunner Pharm",Rawa Mazowiecka,Poland,51.7667,20.25,Pharmacy,Retail,Thalilamide,Antibiotics,10,615,6150,January,2018,,Alisha Cordwell,Charlie,Low
Smith Inc ,Ondricka Ltd Pharmacy,Świnoujście,Poland,53.9167,14.25,Hospital,Government,Apronazol,Antibiotics,200,472,94400,January,2018,Jimmy Grey,Alisha Cordwell,Charlie,High
Beier  ,Rohan Inc ,Chojnów,Poland,51.2667,15.9333,Pharmacy,Institution,Diprotaine,Antiseptics,20,318,6360,January,2018,Morris Garcia,Tracy Banks,Bravo,Low
Prohaska-Kuhic ,Mills Inc Pharma Plc,Bydgoszcz,Poland,53.1167,18,Hospital,Private,Magneprex,Antimalarial,6,187,1122,January,2018,Anne Wu,Britanny Bold,Delta,Low
Cassin  ,"Moen, Murazik and Smith ",Siedlce,Poland,52.1833,22.2833,Pharmacy,Retail,Alimmethate Insudase,Analgesics,6,624,3744,January,2018,Morris Garcia,,Bravo,Low
Schuppe Inc ,Zemlak Group Pharmaceutical Limited,Koszalin,Poland,54.1903,16.1817,Hospital,Private,Clinolan Pitoletra,Mood Stabilizers,1,130,130,January,2018,Jessica Smith,,Delta,Low
Gottlieb-Cruickshank  ,Barton Ltd Pharma Plc,Czeladź,Poland,50.3333,19.0833,Hospital,Private,Interfedox Pilobamol,Antiseptics,2,41,82,January,2018,Anne Wu,Britanny Bold,Delta,Low
Gottlieb-Cruickshank  ,Vandervort LLC Pharma Plc,Łańcut,Poland,50.0687,22.2291,Pharmacy,Institution,Adideine,Mood Stabilizers,1,678,678,January,2018,Erica Jones,James Goodwill,Alfa,Low
Cassin  ,Haley PLC Pharmaceutical Limited,Opole,Poland,50.6722,,Pharmacy,Retail,Exotropin Empizine,Mood Stabilizers,30,785,23550,January,2018,Thompson Crawford,James Goodwill,Alfa,Medium
Smith Inc ,"Hills, Stroman and Ernser Pharm",Pułtusk,Poland,52.7025,21.0828,Hospital,Private,Insozyme,Antiseptics,2,655,1310,February,2018,Anne Wu,Britanny Bold,Delta,Low
Graham and Sons ,"Romaguera, Moen and Hagenes Pharmaceutical Limited",Sopot,Poland,54.4419,18.5478,Hospital,Private,Aquamycin Lacoran,Analgesics,2000,345,,February,2018,Erica Jones,James Goodwill,Alfa,High
Prohaska-Kuhic ,"Bogan, Jacobs and Kris Pharmacy",Lubartów,Poland,51.4667,22.6,Pharmacy,Institution,Ampinonide,Antimalarial,20,248,4960,February,2018,,Alisha Cordwell,Charlie,Low
Gottlieb-Cruickshank  ,Mante-Grady Pharm,Lubaczów,Poland,50.1556,23.123,Pharmacy,Institution,Victomine,Antimalarial,5,705,3525,February,2018,Jessica Smith,Britanny Bold,Delta,Low
Gottlieb-Cruickshank  ,Bayer LLC Pharmaceutical Ltd,Bytów,Poland,54.1667,17.5,Hospital,Private,Apromin,Antiseptics,6,375,2250,February,2018,Abigail Thompson,Tracy Banks,Bravo,Low
Beier  ,Mills Inc Pharma Plc,Bydgoszcz,Poland,53.1167,18,Hospital,Private,Magneprex,Antimalarial,960,187,179520,February,2018,Erica Jones,James Goodwill,Alfa,High
Gottlieb-Cruickshank  ,"Haag, Bradtke and Terry Pharmacy",Biała Podlaska,Poland,52.0333,23.1167,Hospital,Government,Effigine Propraprex,Antimalarial,300,377,113100,February,2018,Mary Gerrard,,Delta,High
Gottlieb-Cruickshank  ,Spencer-Jerde Pharmacy,Przeworsk,Poland,50.0591,22.4941,Pharmacy,Institution,Magneprex,Antimalarial,10,187,1870,February,2018,Daniel Gates,Alisha Cordwell,Charlie,Low
Schuppe Inc ,Monahan Ltd ,Oświęcim,Poland,,19.2333,Hospital,Government,Nevanide Actozide,Antibiotics,150,773,115950,February,2018,Stella Given,Alisha Cordwell,Charlie,High
Prohaska-Kuhic ,Purdy Ltd Pharmaceutical Limited,Głuchołazy,Poland,50.3131,17.3742,Hospital,Government,Tesnorphine Silotamine,Antibiotics,5,319,1595,February,2018,Daniel Gates,Alisha Cordwell,Charlie,Low
Smith Inc ,D'Amore and Sons ,Wągrowiec,Poland,52.8,17.2,Hospital,Private,Microroban Afatigomar,Antimalarial,5,478,2390,February,2018,Erica Jones,James Goodwill,Alfa,Low
Gottlieb-Cruickshank  ,Torp-Fisher Pharma Plc,Gorlice,Poland,49.6556,21.1604,Hospital,Government,Lactubucil,Antipiretics,3,585,1755,February,2018,Steve Pepple,Tracy Banks,Bravo,Low
Gottlieb-Cruickshank  ,Ondricka Ltd Pharmacy,Świnoujście,Poland,53.9167,14.25,Hospital,Government,Darlofen,Antipiretics,20,577,11540,February,2018,Anne Wu,Britanny Bold,Delta,Medium
Gottlieb-Cruickshank  ,Lesch PLC Pharmacy,Wrocław,Poland,51.1077,17.0353,Hospital,Private,Adideine,Mood Stabilizers,5,678,3390,February,2018,Steve Pepple,,Bravo,Low
Gottlieb-Cruickshank  ,Streich PLC Pharmaceutical Limited,Przemyśl,Poland,49.785,22.7673,Pharmacy,Institution,Thalilamide,Antibiotics,1,615,615,February,2018,Steve Pepple,Tracy Banks,Bravo,Low
Gottlieb-Cruickshank  ,"Steuber, Skiles and Kilback Pharma Plc",Sosnowiec,Poland,50.3,19.1667,Pharmacy,Retail,Albuterenone,Antimalarial,15,82,1230,February,2018,Morris Garcia,Tracy Banks,Bravo,Low
Gottlieb-Cruickshank  ,Feest-Roob Pharmaceutical Ltd,Wolsztyn,Poland,52.1167,16.1167,Pharmacy,Institution,Diprotaine,Antiseptics,2,318,636,February,2018,Sheila Stones,Britanny Bold,Delta,Low
Cassin  ,Crist Inc ,Stary Sącz,Poland,49.5625,20.6364,Hospital,Private,Ciclonazol,Antiseptics,,121,2178,February,2018,Thompson Crawford,James Goodwill,Alfa,Low
Gottlieb-Cruickshank  ,Miller-Satterfield Pharma Plc,Nidzica,Poland,53.3583,20.425,Hospital,Private,Arivac,Antimalarial,4,567,2268,February,2018,Sheila Stones,Britanny Bold,Delta,Low
Smith Inc ,"Romaguera, Moen and Hagenes Pharmaceutical Limited",Sopot,Poland,54.4419,18.5478,Hospital,Private,Belavarix Benzabicin,Antibiotics,6,131,786,February,2018,Thompson Crawford,James Goodwill,Alfa,Low
Prohaska-Kuhic ,"Zieme, Doyle and Kunze ",Lublin,Poland,51.2333,22.5667,Hospital,Private,Propratecan,Antimalarial,30,682,20460,February,2018,Abigail Thompson,,Bravo,Medium
Smith Inc ,Rohan PLC Pharmaceutical Limited,Krynica,Poland,49.4222,20.9594,Pharmacy,Retail,Exotropin Empizine,Mood Stabilizers,,785,785,February,2018,Mary Gerrard,Britanny Bold,Delta,Medium
Prohaska-Kuhic ,Hartmann-Wolf ,Trzebnica,Poland,51.305,17.0614,Hospital,Government,Nisorase,Antibiotics,10,393,3930,February,2018,Jessica Smith,Britanny Bold,Delta,Low
Rohan   ,"Casper, Hyatt and Jakubowski Pharmaceutical Limited",Otwock,Poland,52.1167,21.2667,Hospital,Government,Cortirodine Alimcline,Antipiretics,20,128,2560,February,2018,Abigail Thompson,Tracy Banks,Bravo,Low
Prohaska-Kuhic ,"Lebsack, Yost and Heller Pharmaceutical Limited",Wieliczka,Poland,49.9894,20.0661,Pharmacy,Institution,Antaparin Varizyme,Mood Stabilizers,3,513,1539,February,2018,Jessica Smith,,Delta,Low
Smith Inc ,"Schmitt, Berge and Haley Pharma Plc",Kłodzko,Poland,50.4378,16.6528,Hospital,Private,Enzastryl,Antiseptics,4,26,104,February,2018,Abigail Thompson,Tracy Banks,Bravo,Low
Prohaska-Kuhic ,"Harris, Daugherty and Okuneva Pharma Plc",Krotoszyn,Poland,51.697,17.4357,Pharmacy,Retail,Docstryl Rivacin,Antiseptics,10,789,7890,February,2018,Thompson Crawford,James Goodwill,Alfa,Low
Gottlieb-Cruickshank  ,Kutch-Marks Pharm,Chełm,Poland,51.1333,23.4833,Hospital,Private,Dexmeprazole Transnuvia,Mood Stabilizers,20,180,3600,February,2018,Steve Pepple,Tracy Banks,Bravo,Low
Smith Inc ,Emard-O'Connell Pharmacy,Zakopane,Poland,49.2994,19.9519,Pharmacy,Retail,Primapion,Antibiotics,1,492,,February,2018,Jessica Smith,,Delta,Low
Smith Inc ,"Schowalter, Runolfsson and VonRueden Pharmaceutical Ltd",Grudziądz,Poland,53.4925,18.7761,Pharmacy,Retail,Duraprazole Agalsixolol,Antiseptics,5,375,1875,February,2018,Mary Gerrard,Britanny Bold,Delta,Low
Gottlieb-Cruickshank  ,Boyer and Sons Pharmaceutical Limited,Wałcz,Poland,53.2667,16.4667,Hospital,Government,Amavirase,Antipiretics,,487,4870,February,2018,Jimmy Grey,,Charlie,Medium
Prohaska-Kuhic ,"Kshlerin, Ryan and Leuschke Pharma Plc",Zielona Góra,Poland,51.9397,15.505,Hospital,Government,Bexridol,Antipiretics,1,80,80,February,2018,Daniel Gates,Alisha Cordwell,Charlie,Low
Beier  ,Raynor-Graham Pharmaceutical Limited,Gorzów Wielkopolski,Poland,52.7333,15.25,Pharmacy,Institution,Symbitrim,Analgesics,10,536,5360,February,2018,Mary Gerrard,Britanny Bold,Delta,Low
Gottlieb-Cruickshank  ,Purdy Ltd Pharmaceutical Limited,Głuchołazy,Poland,50.3131,,Hospital,Government,Interzide,Antimalarial,2,420,840,February,2018,Mary Gerrard,Britanny Bold,Delta,Low
Cassin  ,Spencer-Jerde Pharmacy,Przeworsk,Poland,50.0591,22.4941,Pharmacy,Institution,Ribabyclor,Antiseptics,20,469,9380,February,2018,Jimmy Grey,Alisha Cordwell,Charlie,Medium
Smith Inc ,"Hills, Stroman and Ernser Pharm",Pułtusk,Poland,52.7025,21.0828,Hospital,Private,Ergomethate,Mood Stabilizers,10,604,6040,February,2018,Erica Jones,James Goodwill,Alfa,Low
Gottlieb-Cruickshank  ,"Gleichner, Bahringer and Morar Pharma Plc",Gostynin,Poland,52.4167,19.4667,Hospital,Private,Benzoprox,Antiseptics,120,284,34080,February,2018,Thompson Crawford,James Goodwill,Alfa,High
Gottlieb-Cruickshank  ,Schaden-Hirthe Pharmaceutical Ltd,Świdnica,Poland,50.8438,16.4886,Pharmacy,Institution,Robapril,Antipiretics,3,453,1359,February,2018,Jessica Smith,Britanny Bold,Delta,Low
Prohaska-Kuhic ,Heller-Abernathy ,Brzeg Dolny,Poland,51.273,16.7081,Hospital,Private,Ibruferon,Antiseptics,10,82,820,February,2018,Jimmy Grey,Alisha Cordwell,Charlie,Low
Gottlieb-Cruickshank  ,Pfeffer-Hodkiewicz Pharmaceutical Ltd,Szczytno,Poland,53.5628,20.9853,Hospital,Government,Acubulin,Antipiretics,20,490,9800,February,2018,Alan Ray,James Goodwill,Alfa,Medium
Prohaska-Kuhic ,Waelchi LLC Pharmacy,Katowice,Poland,50.25,19,Hospital,Government,Symdocet,Antipiretics,30,470,14100,February,2018,Abigail Thompson,Tracy Banks,Bravo,Medium
Prohaska-Kuhic ,"McClure, Zemlak and Dibbert Pharmaceutical Limited",Kórnik,Poland,52.2367,17.0986,Hospital,Private,Clindaracil,Analgesics,288,173,49824,February,2018,Erica Jones,James Goodwill,Alfa,High
Prohaska-Kuhic ,Feest PLC ,Świecie,Poland,53.4167,18.4333,Pharmacy,Retail,Palodizem,Mood Stabilizers,1,201,201,February,2018,Jimmy Grey,Alisha Cordwell,Charlie,Low
Smith Inc ,Stehr-Champlin Pharmaceutical Limited,Nowe Miasto Lubawskie,Poland,53.4167,19.5833,Hospital,Government,Temasone Thiobucil,Antimalarial,10,482,4820,February,2018,Steve Pepple,Tracy Banks,Bravo,Low
Smith Inc ,Mante-Grady Pharm,Lubaczów,Poland,50.1556,23.123,Pharmacy,Institution,Acantaine,Antibiotics,40,66,2640,February,2018,Erica Jones,,Alfa,Low
Prohaska-Kuhic ,Funk and Sons Pharmaceutical Limited,Tarnobrzeg,Poland,50.5833,21.6833,Pharmacy,Retail,Nevanide Actozide,Antibiotics,,773,,February,2018,,Britanny Bold,Delta,Medium
Gottlieb-Cruickshank  ,"Schinner, Gaylord and Treutel Pharmaceutical Ltd",Dąbrowa Górnicza,Poland,50.3239,19.1947,Hospital,Government,Choriotrisin,Antibiotics,4,591,,February,2018,Morris Garcia,Tracy Banks,Bravo,Low
Prohaska-Kuhic ,Crona PLC Pharma Plc,Białogard,Poland,54.007,15.9875,Hospital,Private,Hepavice,Mood Stabilizers,2,140,280,February,2018,Daniel Gates,Alisha Cordwell,Charlie,Low
Gottlieb-Cruickshank  ,"Harris, Daugherty and Okuneva Pharma Plc",Krotoszyn,Poland,51.697,17.4357,Pharmacy,Retail,Primapion,Antibiotics,2,492,984,February,2018,Daniel Gates,Alisha Cordwell,Charlie,Low
Smith Inc ,Kutch-Marks Pharm,Chełm,Poland,51.1333,23.4833,Hospital,Private,Decidenu Galantrigine,Antipiretics,24,590,14160,February,2018,Mary Gerrard,Britanny Bold,Delta,Medium
Smith Inc ,Balistreri-Watsica Pharmacy,Ełk,Poland,53.8167,22.35,Pharmacy,Retail,Aquamycin Lacoran,Analgesics,30,345,10350,February,2018,Thompson Crawford,James Goodwill,Alfa,Medium
Smith Inc ,"Rosenbaum, Klein and Herzog ",Zbąszyń,Poland,52.2531,15.9178,Hospital,Private,Neuropogen Empibax,Analgesics,5,605,3025,February,2018,Anne Wu,Britanny Bold,Delta,Low
Gottlieb-Cruickshank  ,Monahan Ltd ,Oświęcim,Poland,50.0333,19.2333,Hospital,Government,Cogxone Levanide,Antimalarial,1,686,686,February,2018,Sheila Stones,Britanny Bold,Delta,Low
Gottlieb-Cruickshank  ,Welch-Orn ,Chełmno,Poland,53.3492,18.4261,Hospital,Private,Afluferon Entrarenone,Antimalarial,20,104,2080,February,2018,Sheila Stones,Britanny Bold,Delta,Low
Gottlieb-Cruickshank  ,Kuhic LLC Pharma Plc,Oborniki,Poland,52.65,16.8167,Pharmacy,Retail,Penitrana,Analgesics,2,179,358,February,2018,Alan Ray,James Goodwill,Alfa,Low
Gottlieb-Cruickshank  ,"Buckridge, Hand and Hyatt Pharma Plc",Zgorzelec,Poland,51.1528,15,Pharmacy,Institution,Halciramine,Antimalarial,2,409,818,February,2018,Jimmy Grey,Alisha Cordwell,Charlie,Low
Graham and Sons ,Kreiger Inc Pharma Plc,Mielec,Poland,50.2833,21.4333,Hospital,Private,Syntheruvax Proracin,Antimalarial,216,86,18576,February,2018,Jimmy Grey,Alisha Cordwell,Charlie,Medium
Smith Inc ,"Ondricka, Rosenbaum and Beahan ",Starogard Gdański,Poland,53.9667,18.5333,Hospital,Government,Biotasol Siloderm,Antiseptics,36,373,13428,February,2018,Steve Pepple,Tracy Banks,Bravo,Medium
Gottlieb-Cruickshank  ,Rohan Inc ,Chojnów,Poland,51.2667,15.9333,Pharmacy,Institution,Comzyme,Antibiotics,25,114,2850,February,2018,Jimmy Grey,Alisha Cordwell,Charlie,Low
Gottlieb-Cruickshank  ,"Hansen, Fadel and Schroeder Pharm",Gniezno,Poland,52.5333,17.6,Pharmacy,Retail,Kinerinex,Antiseptics,,647,3882,February,2018,Morris Garcia,Tracy Banks,Bravo,Medium
Prohaska-Kuhic ,"Upton, Abernathy and Goodwin Pharmaceutical Ltd",Jarosław,Poland,50.0162,,Hospital,Government,Penitrana,Analgesics,1,179,179,February,2018,Erica Jones,James Goodwill,Alfa,Low
Prohaska-Kuhic ,Veum-Kerluke Pharmacy,Człuchów,Poland,53.65,17.3667,Pharmacy,Retail,Rebedase Aplencor,Mood Stabilizers,2,180,360,February,2018,Mary Gerrard,Britanny Bold,Delta,Low
Prohaska-Kuhic ,"Funk, Ratke and Heaney Pharmacy",Prabuty,Poland,53.7558,19.1975,Hospital,Government,Aldevac,Analgesics,60,26,1560,February,2018,Steve Pepple,Tracy Banks,Bravo,Low
Gottlieb-Cruickshank  ,Mills Inc Pharma Plc,Bydgoszcz,Poland,53.1167,18,Hospital,Private,Ergomethate,Mood Stabilizers,2,604,1208,February,2018,Daniel Gates,Alisha Cordwell,Charlie,Low
Prohaska-Kuhic ,Jakubowski Inc Pharmaceutical Limited,Bolesławiec,Poland,51.2667,,Pharmacy,Retail,Interfestar,Antibiotics,60,62,3720,February,2018,Erica Jones,James Goodwill,Alfa,Low
Prohaska-Kuhic ,Feest-Roob Pharmaceutical Ltd,Wolsztyn,Poland,52.1167,16.1167,Pharmacy,Institution,Diprolimus,Antiseptics,,634,2536,February,2018,,James Goodwill,Alfa,Medium
Smith Inc ,"Erdman, Senger and Oberbrunner Pharm",Rawa Mazowiecka,Poland,51.7667,20.25,Pharmacy,Retail,Diaxolol,Antiseptics,60,765,45900,February,2018,Erica Jones,James Goodwill,Alfa,High
Beier  ,Senger-Kirlin Pharmacy,Kobyłka,Poland,52.3395,,Hospital,Government,Formolovir Amanferon,Analgesics,10,191,1910,February,2018,Jimmy Grey,Alisha Cordwell,Charlie,Low
Prohaska-Kuhic ,"Denesik, Walter and Beatty Pharma Plc",Ostrów Mazowiecka,Poland,52.8,21.9,Pharmacy,Institution,Invisteride Diclomycin,Mood Stabilizers,24,452,10848,February,2018,Jessica Smith,Britanny Bold,Delta,Medium
Gottlieb-Cruickshank  ,Nader-Gaylord Pharmaceutical Limited,Sobótka,Poland,50.8986,16.7444,Hospital,Private,Aggrakine,Antiseptics,4,47,188,February,2018,Stella Given,Alisha Cordwell,Charlie,Low
Prohaska-Kuhic ,"Blick, Pacocha and Schowalter ",Inowrocław,Poland,,18.2611,Pharmacy,Retail,Brimorix Amonine,Antibiotics,5,398,1990,February,2018,Morris Garcia,Tracy Banks,Bravo,Low
Gottlieb-Cruickshank  ,Steuber Ltd Pharmacy,Ostrołęka,Poland,53.0833,21.5667,Hospital,Private,Oxymotroban Fexoformin,Analgesics,3,458,1374,February,2018,Steve Pepple,Tracy Banks,Bravo,Low
Prohaska-Kuhic ,"Crist, Wisoky and Nolan Pharmaceutical Ltd",Toruń,Poland,53.0167,18.6167,Pharmacy,Retail,Alisteride Pemidizem,Antiseptics,2,35,70,February,2018,Erica Jones,James Goodwill,Alfa,Low
Gottlieb-Cruickshank  ,Schaden-Hirthe Pharmaceutical Ltd,Świdnica,Poland,50.8438,16.4886,Pharmacy,Institution,Microroban Afatigomar,Antimalarial,4,478,1912,February,2018,Anne Wu,Britanny Bold,Delta,Low
Smith Inc ,"Upton, Abernathy and Goodwin Pharmaceutical Ltd",Jarosław,Poland,50.0162,22.6778,Hospital,Government,Zonixamine Immulinum,Analgesics,,298,1788,February,2018,Stella Given,Alisha Cordwell,Charlie,Low
Smith Inc ,"Hirthe, Williamson and Macejkovic Pharma Plc",Brzeg,Poland,50.8667,17.4833,Hospital,Government,Symdocet,Antipiretics,4,470,1880,February,2018,Mary Gerrard,Britanny Bold,Delta,Low
Gottlieb-Cruickshank  ,Lemke Ltd Pharm,Tarnów,Poland,50.0125,20.9883,Hospital,Private,Fentatrol Rapatelase,Antibiotics,2,458,916,February,2018,Sheila Stones,Britanny Bold,Delta,Low
Smith Inc ,Rutherford and Sons ,Gdynia,Poland,54.5189,18.5319,Pharmacy,Retail,Fentatrol Rapatelase,Antibiotics,36,458,16488,February,2018,Daniel Gates,Alisha Cordwell,Charlie,Medium
Prohaska-Kuhic ,"Johnson, Friesen and Torphy Pharma Plc",Gryfino,Poland,53.2524,14.4883,Hospital,Government,Rositroban,Mood Stabilizers,5,481,2405,February,2018,Stella Given,Alisha Cordwell,Charlie,Low
Prohaska-Kuhic ,Torp-Fisher Pharma Plc,Gorlice,Poland,49.6556,21.1604,Hospital,Government,Lansopril Acribax,Antipiretics,6,492,2952,March,2018,Daniel Gates,Alisha Cordwell,Charlie,Low
Smith Inc ,Feest PLC ,Świecie,Poland,,18.4333,Pharmacy,Retail,Afaxacin,Analgesics,1,60,60,March,2018,Erica Jones,James Goodwill,Alfa,Low
Beier  ,Powlowski-Buckridge Pharma Plc,Ustka,Poland,54.5805,16.8619,Hospital,Private,Propratecan,Antimalarial,5,682,3410,March,2018,,Tracy Banks,Bravo,Low
Gottlieb-Cruickshank  ,Hermiston and Sons Pharma Plc,Bochnia,Poland,49.9833,20.4333,Pharmacy,Institution,Insozyme,Antiseptics,5,655,3275,March,2018,Mary Gerrard,,Delta,Low
Beier  ,Will and Sons Pharmaceutical Limited,Poznań,Poland,52.4,16.9167,Hospital,Government,Paronium Atracustone,Analgesics,12,414,4968,March,2018,Stella Given,Alisha Cordwell,Charlie,Low
Smith Inc ,"Leuschke, Waters and Schowalter Pharmaceutical Ltd",Krapkowice,Poland,50.4751,17.9654,Pharmacy,Institution,Ciclonazol,Antiseptics,90,121,10890,March,2018,Alan Ray,James Goodwill,Alfa,Medium
Smith Inc ,"Nitzsche, Effertz and Maggio Pharmacy",Malbork,Poland,54.0285,19.0444,Hospital,Private,Claricriptine Adaferol,Antibiotics,880,33,29040,March,2018,Stella Given,Alisha Cordwell,Charlie,High
Smith Inc ,"Upton, Abernathy and Goodwin Pharmaceutical Ltd",Jarosław,Poland,50.0162,22.6778,Hospital,Government,Duraprazole Agalsixolol,Antiseptics,4,375,1500,March,2018,Mary Gerrard,Britanny Bold,Delta,Low
Gottlieb-Cruickshank  ,Streich PLC Pharmaceutical Limited,Przemyśl,Poland,49.785,22.7673,Pharmacy,Institution,Acycnafine Microvate,Mood Stabilizers,432,658,284256,March,2018,Thompson Crawford,James Goodwill,Alfa,High
Smith Inc ,"Casper, Hyatt and Jakubowski Pharmaceutical Limited",Otwock,Poland,52.1167,21.2667,Hospital,Government,Proprabax,Analgesics,180,64,11520,March,2018,Steve Pepple,Tracy Banks,Bravo,Medium
Cassin  ,"Effertz, Heaney and Tillman Pharmaceutical Ltd",Jaworzno,Poland,50.2,19.275,Hospital,Government,Betanem,Analgesics,30,611,18330,March,2018,Anne Wu,Britanny Bold,Delta,Medium
Smith Inc ,Yundt-Crona Pharmaceutical Ltd,Siemiatycze,Poland,52.4272,22.8625,Hospital,Private,Antilamin Clinbital,Antibiotics,10,664,6640,March,2018,Thompson Crawford,James Goodwill,Alfa,Low
Cassin  ,Keeling LLC Pharmacy,Olsztyn,Poland,53.78,20.4942,Pharmacy,Retail,Temasone Thiobucil,Antimalarial,20,482,9640,March,2018,Jimmy Grey,Alisha Cordwell,Charlie,Medium
Prohaska-Kuhic ,Kozey Ltd Pharmaceutical Ltd,Bielsk Podlaski,Poland,52.7667,23.2,Hospital,Government,Topitaine,Mood Stabilizers,10,517,5170,March,2018,Alan Ray,James Goodwill,Alfa,Low
Prohaska-Kuhic ,Lemke Ltd Pharm,Tarnów,Poland,50.0125,20.9883,Hospital,Private,Victomax,Analgesics,,623,18690,March,2018,Sheila Stones,Britanny Bold,Delta,Medium
Gottlieb-Cruickshank  ,Lockman Ltd ,Połaniec,Poland,50.4333,21.2833,Pharmacy,Institution,Adalatamine,Antiseptics,3,794,2382,March,2018,Daniel Gates,Alisha Cordwell,Charlie,Low
Gottlieb-Cruickshank  ,Lockman Ltd ,Połaniec,Poland,50.4333,21.2833,Pharmacy,Institution,Ribabyclor,Antiseptics,4,469,1876,March,2018,Jimmy Grey,Alisha Cordwell,Charlie,Low
Prohaska-Kuhic ,West Group Pharmacy,Kluczbork,Poland,50.9833,18.2167,Hospital,Government,Penitrana,Analgesics,1,179,179,March,2018,Morris Garcia,,Bravo,Low
Gottlieb-Cruickshank  ,Reilly Ltd ,Mława,Poland,53.1167,20.3667,Pharmacy,Retail,Clindaracil,Analgesics,6,173,1038,March,2018,Anne Wu,Britanny Bold,Delta,Low
Gottlieb-Cruickshank  ,Spencer-Jerde Pharmacy,Przeworsk,Poland,50.0591,22.4941,Pharmacy,Institution,Proprabax,Analgesics,5,64,320,March,2018,Steve Pepple,Tracy Banks,Bravo,Low
Gottlieb-Cruickshank  ,"Denesik, Walter and Beatty Pharma Plc",Ostrów Mazowiecka,Poland,52.8,21.9,Pharmacy,Institution,Allomenda,Antipiretics,20,487,,March,2018,,James Goodwill,Alfa,Medium
Smith Inc ,Trantow LLC Pharma Plc,Braniewo,Poland,54.3833,19.8333,Pharmacy,Retail,Pulmodiol Adalaxime,Analgesics,10,605,,March,2018,Jessica Smith,Britanny Bold,Delta,Low
Gottlieb-Cruickshank  ,Koss Ltd Pharmaceutical Limited,Lwówek Śląski,Poland,51.1167,15.5833,Hospital,Private,Aciprex,Antipiretics,2,421,842,March,2018,Sheila Stones,Britanny Bold,Delta,Low
Prohaska-Kuhic ,Bartoletti-Altenwerth ,Police,Poland,53.55,14.5708,Hospital,Government,Aggrakine,Antiseptics,12,47,564,March,2018,Erica Jones,James Goodwill,Alfa,Low
Gottlieb-Cruickshank  ,Mann-Waelchi Pharm,Piotrków Trybunalski,Poland,51.4,19.6833,Hospital,Private,Pentastrin,Antibiotics,10,497,,March,2018,Steve Pepple,Tracy Banks,Bravo,Low
Gottlieb-Cruickshank  ,Cassin PLC Pharmacy,Miastko,Poland,54,16.9833,Hospital,Private,Ganineva Agenium,Antiseptics,36,390,14040,March,2018,Jimmy Grey,Alisha Cordwell,Charlie,Medium
Smith Inc ,"McClure, Zemlak and Dibbert Pharmaceutical Limited",Kórnik,Poland,52.2367,17.0986,Hospital,Private,Propratecan,Antimalarial,5,682,3410,March,2018,Stella Given,Alisha Cordwell,Charlie,Low
Gottlieb-Cruickshank  ,Cassin PLC Pharmacy,Miastko,Poland,54,16.9833,Hospital,Private,Menogine,Antiseptics,5,742,3710,March,2018,Daniel Gates,Alisha Cordwell,Charlie,Low
Smith Inc ,"Ondricka, Rosenbaum and Beahan ",Starogard Gdański,Poland,53.9667,18.5333,Hospital,Government,Allomenda,Antipiretics,2,487,974,March,2018,Morris Garcia,Tracy Banks,Bravo,Low
Prohaska-Kuhic ,Jakubowski Inc Pharmaceutical Limited,Bolesławiec,Poland,51.2667,15.5667,Pharmacy,Retail,Thionide,Analgesics,5,113,565,March,2018,Jimmy Grey,Alisha Cordwell,Charlie,Low
Gottlieb-Cruickshank  ,"Kub, Von and Herzog Pharmacy",Wschowa,Poland,51.8,16.3,Hospital,Private,Topitaine,Mood Stabilizers,12,517,6204,March,2018,Alan Ray,James Goodwill,Alfa,Low
Prohaska-Kuhic ,Senger-Kirlin Pharmacy,Kobyłka,Poland,52.3395,21.1959,Hospital,Government,Claripenem,Antibiotics,4,448,1792,March,2018,Jimmy Grey,Alisha Cordwell,Charlie,Low
Gottlieb-Cruickshank  ,Hayes-Kilback Pharmaceutical Ltd,Żary,Poland,51.6333,15.1333,Pharmacy,Retail,Pulmogen Alitora,Antiseptics,4,647,2588,March,2018,Thompson Crawford,James Goodwill,Alfa,Low
Smith Inc ,Buckridge-Strosin Pharmaceutical Limited,Pruszków,Poland,52.1667,20.8,Hospital,Government,Trazobalamin,Mood Stabilizers,20,762,15240,March,2018,Mary Gerrard,Britanny Bold,Delta,Medium
Gottlieb-Cruickshank  ,Miller-Satterfield Pharma Plc,Nidzica,Poland,53.3583,20.425,Hospital,Private,Dantolac Pazocor,Analgesics,1,578,578,March,2018,Steve Pepple,Tracy Banks,Bravo,Low
Prohaska-Kuhic ,Herman-Koss Pharm,Lubsko,Poland,51.7877,14.9724,Hospital,Private,Sodinel Olofribrate,Antimalarial,6,50,300,March,2018,Anne Wu,Britanny Bold,Delta,Low
Gottlieb-Cruickshank  ,Schmitt LLC Pharm,Nysa,Poland,50.4738,17.3344,Pharmacy,Retail,Eproline,Antibiotics,10,780,7800,March,2018,Stella Given,Alisha Cordwell,Charlie,Low
Smith Inc ,Emard-O'Connell Pharmacy,Zakopane,Poland,49.2994,19.9519,Pharmacy,Retail,Aciprex,Antipiretics,79,421,33259,March,2018,Erica Jones,James Goodwill,Alfa,High
Prohaska-Kuhic ,Rowe PLC Pharmaceutical Ltd,Kęty,Poland,49.8821,19.2233,Pharmacy,Institution,Lovapur,Mood Stabilizers,5,551,2755,March,2018,Jessica Smith,Britanny Bold,Delta,Low
Beier  ,Carter-Conn Pharma Plc,Brwinów,Poland,52.1417,20.7167,Hospital,Private,Lacoplex Hyaluvance,Mood Stabilizers,72,334,,March,2018,Steve Pepple,Tracy Banks,Bravo,High
Smith Inc ,"Funk, Ratke and Heaney Pharmacy",Prabuty,Poland,53.7558,19.1975,Hospital,Government,Fosinofen,Antipiretics,10,385,,March,2018,Jimmy Grey,Alisha Cordwell,Charlie,Low
Beier  ,Bashirian-Kassulke Pharma Plc,Kraków,Poland,50.0614,19.9372,Hospital,Private,Zarostral,Antipiretics,180,141,25380,March,2018,Alan Ray,James Goodwill,Alfa,High
Smith Inc ,Crist Inc ,Stary Sącz,Poland,49.5625,20.6364,Hospital,Private,Symbitrim,Analgesics,300,536,160800,March,2018,Stella Given,Alisha Cordwell,Charlie,High
Rohan   ,Schimmel-Waelchi Pharmaceutical Ltd,Grodzisk Mazowiecki,Poland,52.1039,20.6337,Hospital,Government,Lovavatol Azelavarix,Mood Stabilizers,10,106,1060,March,2018,Jimmy Grey,Alisha Cordwell,Charlie,Low
Smith Inc ,Gerlach LLC ,Krzeszowice,Poland,50.1333,19.6333,Hospital,Government,Zyvance,Analgesics,432,323,139536,March,2018,Jessica Smith,Britanny Bold,Delta,High
Gottlieb-Cruickshank  ,Abernathy Group Pharmaceutical Limited,Brzesko,Poland,49.9667,20.6167,Hospital,Government,Atomorelin,Analgesics,20,555,11100,March,2018,Steve Pepple,Tracy Banks,Bravo,Medium
Gottlieb-Cruickshank  ,Bosco-Marquardt Pharm,Lębork,Poland,54.55,,Hospital,Private,Factofribrate,Mood Stabilizers,5,99,495,March,2018,Anne Wu,Britanny Bold,Delta,Low
Smith Inc ,Koss Ltd Pharmaceutical Limited,Lwówek Śląski,Poland,51.1167,15.5833,Hospital,Private,Presetron,Mood Stabilizers,100,216,21600,March,2018,Sheila Stones,Britanny Bold,Delta,Medium
Prohaska-Kuhic ,Stanton-Cole ,Skierniewice,Poland,51.9528,20.1417,Hospital,Private,Immurenol Temarate,Antipiretics,40,303,12120,March,2018,Jessica Smith,Britanny Bold,Delta,Medium
Gottlieb-Cruickshank  ,McCullough LLC Pharma Plc,Częstochowa,Poland,50.8,19.1167,Pharmacy,Retail,Kinovatol,Analgesics,2,370,,March,2018,Stella Given,Alisha Cordwell,Charlie,Low
Smith Inc ,Yundt-Crona Pharmaceutical Ltd,Siemiatycze,Poland,52.4272,22.8625,Hospital,Private,Victomine,Antimalarial,1,705,705,March,2018,Daniel Gates,Alisha Cordwell,Charlie,Low
Prohaska-Kuhic ,Feest-Kshlerin Pharmaceutical Ltd,Świdnik,Poland,51.2333,22.7,Pharmacy,Institution,Alemtuvatol Megalinum,Analgesics,6,682,,March,2018,Abigail Thompson,Tracy Banks,Bravo,Low
Gottlieb-Cruickshank  ,Hermiston LLC ,Strzegom,Poland,,16.3333,Pharmacy,Institution,Exotropin Empizine,Mood Stabilizers,6,785,4710,March,2018,,Alisha Cordwell,Charlie,Low
Gottlieb-Cruickshank  ,"Upton, Abernathy and Goodwin Pharmaceutical Ltd",Jarosław,Poland,50.0162,22.6778,Hospital,Government,Aggrakine,Antiseptics,7,47,,March,2018,Anne Wu,Britanny Bold,Delta,Low
Smith Inc ,"Schowalter, Runolfsson and VonRueden Pharmaceutical Ltd",Grudziądz,Poland,53.4925,18.7761,Pharmacy,Retail,Lovepion,Antiseptics,,544,2720,March,2018,Jimmy Grey,Alisha Cordwell,Charlie,Medium
Smith Inc ,Koss-Beier ,Nakło nad Notecią,Poland,53.1421,17.6018,Pharmacy,Retail,Acycpex,Mood Stabilizers,30,510,15300,March,2018,Erica Jones,James Goodwill,Alfa,Medium
Beier  ,Will and Sons Pharmaceutical Limited,Poznań,Poland,52.4,16.9167,Hospital,Government,Malaxolol Aeroprosyn,Antiseptics,10,502,5020,March,2018,Steve Pepple,Tracy Banks,Bravo,Low
Gottlieb-Cruickshank  ,"Kub, Von and Herzog Pharmacy",Wschowa,Poland,51.8,16.3,Hospital,Private,Megenorphine,Antimalarial,6,402,2412,March,2018,Thompson Crawford,James Goodwill,Alfa,Low
Smith Inc ,Hermiston and Sons Pharma Plc,Bochnia,Poland,49.9833,20.4333,Pharmacy,Institution,Relenvice,Antimalarial,,459,918,March,2018,Jessica Smith,Britanny Bold,Delta,Medium
Gottlieb-Cruickshank  ,Koss Ltd Pharmaceutical Limited,Lwówek Śląski,Poland,51.1167,15.5833,Hospital,Private,Betanem,Analgesics,4,611,2444,March,2018,Steve Pepple,Tracy Banks,Bravo,Low
Gottlieb-Cruickshank  ,Walsh-Brown Pharmacy,Chorzów,Poland,50.3,18.95,Pharmacy,Retail,Cyclovital,Antimalarial,10,677,6770,March,2018,Morris Garcia,Tracy Banks,Bravo,Low
Gottlieb-Cruickshank  ,Kozey Ltd Pharmaceutical Ltd,Bielsk Podlaski,Poland,52.7667,23.2,Hospital,Government,Lovapur,Mood Stabilizers,4,551,2204,March,2018,Morris Garcia,Tracy Banks,Bravo,Low
Smith Inc ,Lemke Ltd Pharm,Tarnów,Poland,50.0125,20.9883,Hospital,Private,Halcifergen Nevazone,Antimalarial,120,710,85200,March,2018,Jessica Smith,Britanny Bold,Delta,High
Gottlieb-Cruickshank  ,Kutch-Marks Pharm,Chełm,Poland,,23.4833,Hospital,Private,Magnemunex,Antiseptics,24,689,,March,2018,Morris Garcia,Tracy Banks,Bravo,Medium
Gottlieb-Cruickshank  ,Koss Ltd Pharmaceutical Limited,Lwówek Śląski,Poland,51.1167,15.5833,Hospital,Private,Ribabyclor,Antiseptics,30,469,14070,March,2018,Stella Given,Alisha Cordwell,Charlie,Medium
Smith Inc ,"Rosenbaum, Klein and Herzog ",Zbąszyń,Poland,52.2531,15.9178,Hospital,Private,Pitodomide,Antimalarial,1,24,24,March,2018,Stella Given,Alisha Cordwell,Charlie,Low
Gottlieb-Cruickshank  ,Veum-Kerluke Pharmacy,Człuchów,Poland,53.65,17.3667,Pharmacy,Retail,Diprolimus,Antiseptics,2,634,1268,March,2018,Morris Garcia,Tracy Banks,Bravo,Low
Smith Inc ,West Group Pharmacy,Kluczbork,Poland,50.9833,18.2167,Hospital,Government,Interfestar,Antibiotics,2,62,124,March,2018,Abigail Thompson,Tracy Banks,Bravo,Low
Gottlieb-Cruickshank  ,Botsford PLC Pharmacy,Pabianice,Poland,51.6642,19.35,Pharmacy,Institution,Zonixamine Immulinum,Analgesics,12,298,3576,March,2018,,,Bravo,Low
Gottlieb-Cruickshank  ,Kunze PLC Pharm,Darłowo,Poland,54.4167,16.4167,Hospital,Private,Aclonuma,Antimalarial,2,474,948,March,2018,,Alisha Cordwell,Charlie,Low
Gottlieb-Cruickshank  ,Torp-Fisher Pharma Plc,Gorlice,Poland,49.6556,21.1604,Hospital,Government,Tesnorphine Silotamine,Antibiotics,10,319,,March,2018,Stella Given,Alisha Cordwell,Charlie,Low
Gottlieb-Cruickshank  ,"Casper, Hyatt and Jakubowski Pharmaceutical Limited",Otwock,Poland,52.1167,21.2667,Hospital,Government,Lovavatol Azelavarix,Mood Stabilizers,,106,1272,March,2018,Daniel Gates,Alisha Cordwell,Charlie,Low
Prohaska-Kuhic ,Bosco-Marquardt Pharm,Lębork,Poland,54.55,17.75,Hospital,Private,Effigine Propraprex,Antimalarial,2,377,754,March,2018,Thompson Crawford,James Goodwill,Alfa,Low
Gottlieb-Cruickshank  ,Ward Group Pharmaceutical Limited,Zabrze,Poland,50.3,18.7833,Pharmacy,Institution,Decidenu Galantrigine,Antipiretics,3,590,1770,March,2018,Jimmy Grey,Alisha Cordwell,Charlie,Low
Prohaska-Kuhic ,Jakubowski Inc Pharmaceutical Limited,Bolesławiec,Poland,51.2667,15.5667,Pharmacy,Retail,Ultrimax Ultriset,Antiseptics,1,269,269,April,2018,Daniel Gates,Alisha Cordwell,Charlie,Low
Smith Inc ,"Kuphal, D'Amore and Bode Pharmaceutical Ltd",Szczecin,Poland,53.4247,14.5553,Pharmacy,Retail,Cricane Acamsumab,Antiseptics,5,22,,April,2018,,Tracy Banks,Bravo,Low
Beier  ,Hill Ltd ,Gliwice,Poland,50.2976,,Pharmacy,Retail,Acycnafine Microvate,Mood Stabilizers,22,658,14476,April,2018,Steve Pepple,Tracy Banks,Bravo,Medium
Gottlieb-Cruickshank  ,"McClure, Zemlak and Dibbert Pharmaceutical Limited",Kórnik,Poland,52.2367,17.0986,Hospital,Private,Atrabicin Alkerotec,Antiseptics,8,249,1992,April,2018,Thompson Crawford,James Goodwill,Alfa,Low
Gottlieb-Cruickshank  ,Rutherford and Sons ,Gdynia,Poland,54.5189,18.5319,Pharmacy,Retail,Trazozaprine,Mood Stabilizers,60,708,42480,April,2018,Abigail Thompson,Tracy Banks,Bravo,High
Cassin  ,Vandervort LLC Pharma Plc,Łańcut,Poland,50.0687,22.2291,Pharmacy,Institution,Temasone Thiobucil,Antimalarial,20,482,,April,2018,Stella Given,Alisha Cordwell,Charlie,Medium
Gottlieb-Cruickshank  ,Emard-O'Connell Pharmacy,Zakopane,Poland,49.2994,19.9519,Pharmacy,Retail,Alarudin Azarolac,Mood Stabilizers,100,567,56700,April,2018,Stella Given,Alisha Cordwell,Charlie,High
Prohaska-Kuhic ,Stehr-Champlin Pharmaceutical Limited,Nowe Miasto Lubawskie,Poland,53.4167,19.5833,Hospital,Government,Afluferon Entrarenone,Antimalarial,5,104,520,April,2018,Sheila Stones,Britanny Bold,Delta,Low
Gottlieb-Cruickshank  ,Hermiston and Sons Pharma Plc,Bochnia,Poland,49.9833,20.4333,Pharmacy,Institution,Ceretosine,Antiseptics,2,343,686,April,2018,Sheila Stones,Britanny Bold,Delta,Low
Prohaska-Kuhic ,Crona PLC Pharma Plc,Białogard,Poland,54.007,,Hospital,Private,Paronium Atracustone,Analgesics,2,414,828,April,2018,Anne Wu,Britanny Bold,Delta,Low
Beier  ,Lesch PLC Pharmacy,Wrocław,Poland,51.1077,17.0353,Hospital,Private,Insozyme,Antiseptics,20,655,13100,April,2018,Daniel Gates,Alisha Cordwell,Charlie,Medium
Gottlieb-Cruickshank  ,Waelchi LLC Pharmacy,Katowice,Poland,50.25,19,Hospital,Government,Kinenadryl,Antipiretics,1,782,782,April,2018,Abigail Thompson,Tracy Banks,Bravo,Low
Prohaska-Kuhic ,"Buckridge, Dach and Carroll Pharmaceutical Limited",Luboń,Poland,52.3333,,Hospital,Private,Propratecan,Antimalarial,20,682,13640,April,2018,Abigail Thompson,Tracy Banks,Bravo,Medium
Gottlieb-Cruickshank  ,Hermiston and Sons Pharma Plc,Bochnia,Poland,,20.4333,Pharmacy,Institution,Fentalac,Antipiretics,1,618,,April,2018,Abigail Thompson,Tracy Banks,Bravo,Low
Smith Inc ,Kutch-Marks Pharm,Chełm,Poland,51.1333,23.4833,Hospital,Private,Antaparin Varizyme,Mood Stabilizers,12,513,,April,2018,Alan Ray,James Goodwill,Alfa,Low
Cassin  ,"Paucek, Keeling and Bruen Pharm",Łęczna,Poland,51.3,22.8833,Pharmacy,Institution,Tetratanyl,Antimalarial,144,511,73584,April,2018,Morris Garcia,Tracy Banks,Bravo,High
Gottlieb-Cruickshank  ,"Upton, Abernathy and Goodwin Pharmaceutical Ltd",Jarosław,Poland,50.0162,22.6778,Hospital,Government,Allomenda,Antipiretics,3,487,1461,April,2018,Alan Ray,James Goodwill,Alfa,Low
Beier  ,Koss Ltd Pharmaceutical Limited,Lwówek Śląski,Poland,51.1167,15.5833,Hospital,Private,Novakyn Tracprox,Antiseptics,20,288,5760,April,2018,,Britanny Bold,Delta,Low
Gottlieb-Cruickshank  ,"Sanford, Franecki and Greenholt ",Nowa Sól,Poland,,15.7167,Pharmacy,Institution,Morphizolid Tianalin,Mood Stabilizers,10,742,,April,2018,,Tracy Banks,Bravo,Low
Prohaska-Kuhic ,Schulist-Zulauf Pharm,Tychy,Poland,50.1667,19,Hospital,Private,Propralamide Dexlanzolam,Mood Stabilizers,3,391,1173,April,2018,,Tracy Banks,Bravo,Low
Prohaska-Kuhic ,Sauer and Sons Pharmaceutical Limited,Brzozów,Poland,49.6953,22.0194,Pharmacy,Retail,Malavirine Alimdine,Mood Stabilizers,20,767,15340,April,2018,Abigail Thompson,Tracy Banks,Bravo,Medium
Gottlieb-Cruickshank  ,"Heathcote, Grant and Witting Pharm",Bielsko-Biała,Poland,,19.0444,Pharmacy,Institution,Topipizole,Mood Stabilizers,30,368,11040,April,2018,Thompson Crawford,James Goodwill,Alfa,Medium
Smith Inc ,"Brakus, Rempel and Harber Pharma Plc",Nowy Targ,Poland,,20.0333,Pharmacy,Institution,Amamadin,Antimalarial,5,713,3565,April,2018,Thompson Crawford,James Goodwill,Alfa,Low
Smith Inc ,Gibson-Hill Pharma Plc,Chrzanów,Poland,50.1333,19.4,Hospital,Private,Duraprazole Agalsixolol,Antiseptics,10,375,3750,April,2018,Sheila Stones,Britanny Bold,Delta,Low
Gottlieb-Cruickshank  ,"Effertz, Heaney and Tillman Pharmaceutical Ltd",Jaworzno,Poland,50.2,19.275,Hospital,Government,Sevotrana Tiafoxin,Analgesics,1,460,,April,2018,Sheila Stones,Britanny Bold,Delta,Low
Gottlieb-Cruickshank  ,Gerlach LLC ,Krzeszowice,Poland,50.1333,19.6333,Hospital,Government,Symbitrim,Analgesics,,536,12864,April,2018,Daniel Gates,Alisha Cordwell,Charlie,Medium
Gottlieb-Cruickshank  ,"Hahn, Rutherford and Gislason Pharmaceutical Limited",Łaziska Górne,Poland,50.15,18.8333,Hospital,Private,Belavarix Benzabicin,Antibiotics,60,131,7860,April,2018,Erica Jones,James Goodwill,Alfa,Low
Gottlieb-Cruickshank  ,Parisian Ltd Pharm,Jelenia Góra,Poland,50.9,15.7333,Pharmacy,Institution,Ampysin,Analgesics,2,243,486,April,2018,Anne Wu,Britanny Bold,Delta,Low
Gottlieb-Cruickshank  ,Crist Inc ,Stary Sącz,Poland,49.5625,20.6364,Hospital,Private,Angioparin Brimosumab,Mood Stabilizers,,682,68200,April,2018,Stella Given,Alisha Cordwell,Charlie,Medium
Prohaska-Kuhic ,Carter-Conn Pharma Plc,Brwinów,Poland,52.1417,20.7167,Hospital,Private,Antilamin Clinbital,Antibiotics,4,664,2656,April,2018,Jimmy Grey,Alisha Cordwell,Charlie,Low
Cassin  ,Hermiston LLC ,Strzegom,Poland,51,16.3333,Pharmacy,Institution,Clinicilin Pentozone,Antimalarial,100,112,11200,April,2018,Stella Given,Alisha Cordwell,Charlie,Medium
Prohaska-Kuhic ,Jakubowski Inc Pharmaceutical Limited,Bolesławiec,Poland,51.2667,15.5667,Pharmacy,Retail,Apronazol,Antibiotics,50,472,23600,April,2018,Jimmy Grey,Alisha Cordwell,Charlie,Medium
Cassin  ,Breitenberg-Kuhn Pharmacy,Radom,Poland,51.4036,21.1567,Hospital,Private,Rositroban,Mood Stabilizers,,481,2405,April,2018,,Alisha Cordwell,Charlie,Medium
Gottlieb-Cruickshank  ,West Group Pharmacy,Kluczbork,Poland,50.9833,,Hospital,Government,Oxymotroban Fexoformin,Analgesics,,458,1832,April,2018,Stella Given,Alisha Cordwell,Charlie,Medium
Smith Inc ,Steuber Ltd Pharmacy,Ostrołęka,Poland,53.0833,21.5667,Hospital,Private,Magneprex,Antimalarial,12,187,2244,April,2018,Alan Ray,James Goodwill,Alfa,Low
Cassin  ,"Koch, Borer and Hagenes ",Kościan,Poland,52.0833,16.65,Hospital,Private,Propralamide Dexlanzolam,Mood Stabilizers,10,391,3910,April,2018,Morris Garcia,Tracy Banks,Bravo,Low
Prohaska-Kuhic ,"Paucek, Keeling and Bruen Pharm",Łęczna,Poland,51.3,22.8833,Pharmacy,Institution,Ibruferon,Antiseptics,4,82,328,April,2018,Anne Wu,,Delta,Low
Smith Inc ,Zemlak-Witting Pharmacy,Międzyrzecz,Poland,52.4446,15.578,Pharmacy,Institution,Acycpex,Mood Stabilizers,5,510,2550,April,2018,Abigail Thompson,Tracy Banks,Bravo,Low
Gottlieb-Cruickshank  ,Hermiston and Sons Pharma Plc,Bochnia,Poland,49.9833,20.4333,Pharmacy,Institution,Adriacaine,Mood Stabilizers,20,361,7220,April,2018,Jessica Smith,Britanny Bold,Delta,Low
Gottlieb-Cruickshank  ,Nader-Gaylord Pharmaceutical Limited,Sobótka,Poland,50.8986,16.7444,Hospital,Private,Panpion,Antiseptics,20,692,13840,April,2018,Mary Gerrard,Britanny Bold,Delta,Medium
Gottlieb-Cruickshank  ,"Herman, Rice and Rippin ",Ziębice,Poland,50.6,17.0444,Hospital,Government,Topitaine,Mood Stabilizers,20,517,10340,April,2018,Sheila Stones,Britanny Bold,Delta,Medium
Gottlieb-Cruickshank  ,"Wiegand, Jast and Yost Pharma Plc",Płock,Poland,52.55,19.7,Hospital,Private,Pulmogen Alitora,Antiseptics,2,647,,April,2018,Daniel Gates,Alisha Cordwell,Charlie,Low
Gottlieb-Cruickshank  ,Zemlak-Witting Pharmacy,Międzyrzecz,Poland,52.4446,15.578,Pharmacy,Institution,Fentatrol Rapatelase,Antibiotics,20,458,9160,April,2018,Daniel Gates,Alisha Cordwell,Charlie,Medium
Smith Inc ,Kutch-Marks Pharm,Chełm,Poland,51.1333,23.4833,Hospital,Private,Proderal,Antiseptics,20,34,680,April,2018,Thompson Crawford,James Goodwill,Alfa,Low
Prohaska-Kuhic ,Schulist-Zulauf Pharm,Tychy,Poland,50.1667,19,Hospital,Private,Dorzovorin Pentadarone,Antimalarial,3,164,492,April,2018,Jimmy Grey,Alisha Cordwell,Charlie,Low
Gottlieb-Cruickshank  ,Crona PLC Pharma Plc,Białogard,Poland,54.007,15.9875,Hospital,Private,Magnemunex,Antiseptics,10,689,6890,April,2018,Daniel Gates,Alisha Cordwell,Charlie,Low
Smith Inc ,"Wintheiser, Breitenberg and Gottlieb Pharmaceutical Limited",Milanówek,Poland,52.1243,20.6654,Pharmacy,Retail,Ketastadil,Analgesics,3,763,2289,April,2018,Jimmy Grey,Alisha Cordwell,Charlie,Low
Gottlieb-Cruickshank  ,Hill Ltd ,Gliwice,Poland,50.2976,18.6766,Pharmacy,Retail,Ketastadil,Analgesics,,763,,April,2018,Stella Given,Alisha Cordwell,Charlie,Medium
Smith Inc ,Gerlach LLC ,Krzeszowice,Poland,50.1333,19.6333,Hospital,Government,Lovepion,Antiseptics,45,544,24480,April,2018,Abigail Thompson,,Bravo,High
Smith Inc ,Crist Inc ,Stary Sącz,Poland,49.5625,20.6364,Hospital,Private,Symbitrim,Analgesics,6,536,3216,April,2018,Thompson Crawford,James Goodwill,Alfa,Low
Stehr-Champlin  ,Lesch PLC Pharmaceutical Ltd,Głuszyca,Poland,50.6874,16.3717,Pharmacy,Retail,Primapion,Antibiotics,50,492,24600,May,2018,Abigail Thompson,Tracy Banks,Bravo,High
Prohaska-Kuhic ,Abernathy Group Pharmaceutical Limited,Brzesko,Poland,49.9667,20.6167,Hospital,Government,Saprodeine Zanprosyn,Antibiotics,5,215,1075,May,2018,Thompson Crawford,James Goodwill,Alfa,Low
Kris LLC  ,Rowe PLC Pharmaceutical Ltd,Kęty,Poland,49.8821,19.2233,Pharmacy,Institution,Aggrakine,Antiseptics,250,47,11750,May,2018,,Tracy Banks,Bravo,Medium
Prohaska-Kuhic ,Medhurst-Beer Pharmaceutical Limited,Rybnik,Poland,50.0833,18.5,Pharmacy,Institution,Paronium Atracustone,Analgesics,50,414,20700,May,2018,Stella Given,,Charlie,Medium
Prohaska-Kuhic ,"Reynolds, Jast and Mante Pharma Plc",Pleszew,Poland,51.8974,17.7856,Pharmacy,Institution,Interzide,Antimalarial,10,420,4200,May,2018,Jimmy Grey,Alisha Cordwell,Charlie,Low
Smith Inc ,Mills Inc Pharma Plc,Bydgoszcz,Poland,53.1167,18,Hospital,Private,Cortirodine Alimcline,Antipiretics,10,128,,May,2018,Stella Given,Alisha Cordwell,Charlie,Low
Prohaska-Kuhic ,"McClure, Zemlak and Dibbert Pharmaceutical Limited",Kórnik,Poland,52.2367,17.0986,Hospital,Private,Abilovir Aprotasol,Antipiretics,2,269,538,May,2018,,Alisha Cordwell,Charlie,Low
Stehr-Champlin  ,Monahan Ltd ,Oświęcim,Poland,50.0333,19.2333,Hospital,Government,Imiformin Transmunex,Antibiotics,1,400,400,May,2018,Thompson Crawford,James Goodwill,Alfa,Low
Smith Inc ,Schmitt LLC Pharm,Nysa,Poland,50.4738,17.3344,Pharmacy,Retail,Claricriptine Adaferol,Antibiotics,36,33,1188,May,2018,Abigail Thompson,Tracy Banks,Bravo,Low
Prohaska-Kuhic ,Nader-Borer Pharma Plc,Bielawa,Poland,50.6908,16.623,Pharmacy,Retail,Clindaracil,Analgesics,12,173,2076,May,2018,Jessica Smith,Britanny Bold,Delta,Low
Stehr-Champlin  ,Lockman Ltd ,Połaniec,Poland,50.4333,21.2833,Pharmacy,Institution,Diazemid Felcept,Analgesics,4,613,,May,2018,Alan Ray,,Alfa,Low
Smith Inc ,Pfannerstill Group Pharmaceutical Ltd,Jelcz-Laskowice,Poland,51.0333,17.3333,Pharmacy,Retail,Dexacilin Triline,Analgesics,2,129,258,May,2018,Anne Wu,Britanny Bold,Delta,Low
Stehr-Champlin  ,Crona PLC Pharma Plc,Białogard,Poland,54.007,15.9875,Hospital,Private,Tacrodomide,Antipiretics,1,420,420,May,2018,Abigail Thompson,Tracy Banks,Bravo,Low
Prohaska-Kuhic ,D'Amore and Sons ,Wągrowiec,Poland,52.8,17.2,Hospital,Private,Nevanide Actozide,Antibiotics,10,773,7730,May,2018,Steve Pepple,Tracy Banks,Bravo,Low
Stehr-Champlin  ,"Blick, Pacocha and Schowalter ",Inowrocław,Poland,52.7958,18.2611,Pharmacy,Retail,Trazobalamin,Mood Stabilizers,5,762,3810,May,2018,Abigail Thompson,Tracy Banks,Bravo,Low
Stehr-Champlin  ,Welch-Orn ,Chełmno,Poland,53.3492,18.4261,Hospital,Private,Symbisine Prednimadin,Mood Stabilizers,4,304,1216,May,2018,Sheila Stones,Britanny Bold,Delta,Low
Kris LLC  ,"Buckridge, Hand and Hyatt Pharma Plc",Zgorzelec,Poland,51.1528,15,Pharmacy,Institution,Novakyn Tracprox,Antiseptics,50,288,14400,May,2018,Daniel Gates,Alisha Cordwell,Charlie,Medium
Stehr-Champlin  ,"Kuphal, D'Amore and Bode Pharmaceutical Ltd",Szczecin,Poland,53.4247,14.5553,Pharmacy,Retail,Vibratosine Alemtrace,Antibiotics,50,269,13450,May,2018,Jimmy Grey,Alisha Cordwell,Charlie,Medium
Stehr-Champlin  ,Hayes-Kilback Pharmaceutical Ltd,Żary,Poland,51.6333,15.1333,Pharmacy,Retail,Robapril,Antipiretics,5,453,2265,May,2018,Anne Wu,Britanny Bold,Delta,Low
Smith Inc ,Lesch PLC Pharmacy,Wrocław,Poland,,17.0353,Hospital,Private,Adalatamine,Antiseptics,336,794,266784,May,2018,,James Goodwill,Alfa,High
Beier  ,Stehr-Champlin Pharmaceutical Limited,Nowe Miasto Lubawskie,Poland,53.4167,19.5833,Hospital,Government,Cephozumab Synmethate,Antibiotics,20,768,15360,May,2018,Jimmy Grey,Alisha Cordwell,Charlie,Medium
Stehr-Champlin  ,Nader-Gaylord Pharmaceutical Ltd,Łódź,Poland,51.7769,19.4547,Pharmacy,Retail,Hydroxyprosyn,Antibiotics,50,220,11000,May,2018,Anne Wu,Britanny Bold,Delta,Medium
Smith Inc ,Mraz Group Pharmacy,Piastów,Poland,52.1833,20.85,Hospital,Private,Asparathasone Unipan,Antibiotics,5,153,765,May,2018,Thompson Crawford,James Goodwill,Alfa,Low
Stehr-Champlin  ,Sauer and Sons Pharmaceutical Limited,Brzozów,Poland,49.6953,22.0194,Pharmacy,Retail,Ionclotide,Analgesics,30,631,18930,May,2018,Alan Ray,James Goodwill,Alfa,Medium
Stehr-Champlin  ,Monahan Ltd ,Oświęcim,Poland,50.0333,19.2333,Hospital,Government,Zarostral,Antipiretics,3,141,,May,2018,Sheila Stones,Britanny Bold,Delta,Low
Prohaska-Kuhic ,Mann-Waelchi Pharm,Piotrków Trybunalski,Poland,51.4,,Hospital,Private,Quiniprosyn,Antiseptics,4,445,1780,May,2018,Steve Pepple,Tracy Banks,Bravo,Low
Beier  ,"Hills, Stroman and Ernser Pharm",Pułtusk,Poland,52.7025,21.0828,Hospital,Private,Clinolan Pitoletra,Mood Stabilizers,20,130,2600,May,2018,Abigail Thompson,Tracy Banks,Bravo,Low
Prohaska-Kuhic ,Mraz-Kutch Pharm,Bieruń Stary,Poland,50.0897,19.0928,Pharmacy,Retail,Zonitonin,Antiseptics,40,518,20720,May,2018,Steve Pepple,Tracy Banks,Bravo,Medium
Prohaska-Kuhic ,Fadel-West ,Złotoryja,Poland,,15.9198,Pharmacy,Institution,Imiformin Transmunex,Antibiotics,5,400,,May,2018,Jessica Smith,Britanny Bold,Delta,Low
Stehr-Champlin  ,Crist Inc ,Stary Sącz,Poland,49.5625,20.6364,Hospital,Private,Ketastadil,Analgesics,120,763,91560,May,2018,Jessica Smith,Britanny Bold,Delta,High
Smith Inc ,Miller-Satterfield Pharma Plc,Nidzica,Poland,53.3583,20.425,Hospital,Private,Ribabyclor,Antiseptics,50,469,23450,May,2018,Daniel Gates,Alisha Cordwell,Charlie,Medium
Smith Inc ,West Group Pharmacy,Kluczbork,Poland,50.9833,18.2167,Hospital,Government,Pitodomide,Antimalarial,5,24,120,May,2018,Daniel Gates,,Charlie,Low
Smith Inc ,"Beer, Kohler and Beatty Pharmaceutical Ltd",Rypin,Poland,53.0667,19.45,Pharmacy,Retail,Ultrimax Ultriset,Antiseptics,2,269,538,May,2018,Jessica Smith,Britanny Bold,Delta,Low
Smith Inc ,"Wintheiser, Breitenberg and Gottlieb Pharmaceutical Limited",Milanówek,Poland,52.1243,,Pharmacy,Retail,Choriogestrel,Antiseptics,3,347,1041,May,2018,Jessica Smith,Britanny Bold,Delta,Low
Stehr-Champlin  ,Zemlak Group Pharmaceutical Limited,Koszalin,Poland,54.1903,,Hospital,Private,Presetron,Mood Stabilizers,,216,19440,May,2018,Daniel Gates,Alisha Cordwell,Charlie,Low
Smith Inc ,"Schmitt, Berge and Haley Pharma Plc",Kłodzko,Poland,50.4378,16.6528,Hospital,Private,Syntheruvax Proracin,Antimalarial,1,86,86,May,2018,Anne Wu,Britanny Bold,Delta,Low
Stehr-Champlin  ,Leuschke PLC Pharmacy,Ciechanów,Poland,52.8817,20.6106,Pharmacy,Retail,Cyclovital,Antimalarial,5,677,,May,2018,Alan Ray,James Goodwill,Alfa,Low
Beier  ,Heller-Abernathy ,Brzeg Dolny,Poland,51.273,16.7081,Hospital,Private,Clinicilin Pentozone,Antimalarial,150,112,16800,May,2018,Morris Garcia,Tracy Banks,Bravo,Medium
Prohaska-Kuhic ,Pfannerstill Group Pharmaceutical Ltd,Jelcz-Laskowice,Poland,51.0333,17.3333,Pharmacy,Retail,Pazofenac,Mood Stabilizers,1,123,123,May,2018,Steve Pepple,Tracy Banks,Bravo,Low
Prohaska-Kuhic ,Lockman Ltd ,Połaniec,Poland,50.4333,21.2833,Pharmacy,Institution,Cephovelam,Mood Stabilizers,5,542,2710,May,2018,Stella Given,Alisha Cordwell,Charlie,Low
Stehr-Champlin  ,"McClure, Zemlak and Dibbert Pharmaceutical Limited",Kórnik,Poland,52.2367,17.0986,Hospital,Private,Menogine,Antiseptics,100,742,74200,May,2018,Mary Gerrard,Britanny Bold,Delta,High
Prohaska-Kuhic ,West Group Pharmacy,Kluczbork,Poland,50.9833,18.2167,Hospital,Government,Acantaine,Antibiotics,4,66,264,May,2018,Abigail Thompson,,Bravo,Low
Stehr-Champlin  ,Funk and Sons Pharmaceutical Limited,Tarnobrzeg,Poland,50.5833,21.6833,Pharmacy,Retail,Acubulin,Antipiretics,50,490,,May,2018,Mary Gerrard,Britanny Bold,Delta,High
Beier  ,Rowe PLC Pharmaceutical Ltd,Kęty,Poland,49.8821,19.2233,Pharmacy,Institution,Tracdomide,Antipiretics,20,548,10960,May,2018,Daniel Gates,Alisha Cordwell,Charlie,Medium
Beier  ,Kunze PLC Pharm,Darłowo,Poland,,16.4167,Hospital,Private,Sodinel Olofribrate,Antimalarial,30,50,1500,May,2018,Sheila Stones,Britanny Bold,Delta,Low
Stehr-Champlin  ,Buckridge-Davis ,Legnica,Poland,51.2101,16.1619,Hospital,Private,Penitrana,Analgesics,5,179,895,May,2018,Stella Given,Alisha Cordwell,Charlie,Low
Stehr-Champlin  ,Zemlak-Witting Pharmacy,Międzyrzecz,Poland,52.4446,15.578,Pharmacy,Institution,Stelazolid,Antimalarial,10,73,730,May,2018,Mary Gerrard,Britanny Bold,Delta,Low
Beier  ,"Steuber, Skiles and Kilback Pharma Plc",Sosnowiec,Poland,50.3,19.1667,Pharmacy,Retail,Hepavice,Mood Stabilizers,20,140,2800,May,2018,Anne Wu,Britanny Bold,Delta,Low
Stehr-Champlin  ,Bashirian-Kassulke Pharma Plc,Kraków,Poland,50.0614,19.9372,Hospital,Private,Finanel,Antimalarial,10,206,2060,May,2018,Anne Wu,Britanny Bold,Delta,Low
Smith Inc ,Hermiston LLC ,Strzegom,Poland,51,16.3333,Pharmacy,Institution,Finanel,Antimalarial,4,206,824,May,2018,Abigail Thompson,Tracy Banks,Bravo,Low
Prohaska-Kuhic ,Parisian Ltd Pharm,Jelenia Góra,Poland,50.9,,Pharmacy,Institution,Zyvance,Analgesics,3,323,969,June,2018,Daniel Gates,Alisha Cordwell,Charlie,Low
Stehr-Champlin  ,Rutherford and Sons ,Gdynia,Poland,54.5189,18.5319,Pharmacy,Retail,Dantocept Ferurenone,Antiseptics,5,307,1535,June,2018,Thompson Crawford,James Goodwill,Alfa,Low
Stehr-Champlin  ,D'Amore and Sons ,Wągrowiec,Poland,52.8,17.2,Hospital,Private,Atrabicin Alkerotec,Antiseptics,5,249,1245,June,2018,Jessica Smith,Britanny Bold,Delta,Low
Lindgren-Simonis Pharm,"Zieme, Doyle and Kunze ",Lublin,Poland,51.2333,22.5667,Hospital,Private,Testant,Mood Stabilizers,648,488,316224,June,2018,Jimmy Grey,Alisha Cordwell,Charlie,High
Beier  ,"Brakus, Rempel and Harber Pharma Plc",Nowy Targ,Poland,49.4833,20.0333,Pharmacy,Institution,Effidomide Evofribrate,Antiseptics,30,612,18360,June,2018,Alan Ray,James Goodwill,Alfa,Medium
Stehr-Champlin  ,Emard-O'Connell Pharmacy,Zakopane,Poland,49.2994,19.9519,Pharmacy,Retail,Lansopril Acribax,Antipiretics,1,492,492,June,2018,Jessica Smith,Britanny Bold,Delta,Low
Stehr-Champlin  ,"Reynolds, Jast and Mante Pharma Plc",Pleszew,Poland,51.8974,17.7856,Pharmacy,Institution,Sanctumine,Antimalarial,1,149,149,June,2018,Abigail Thompson,Tracy Banks,Bravo,Low
Stehr-Champlin  ,"Gleichner, Bahringer and Morar Pharma Plc",Gostynin,Poland,52.4167,,Hospital,Private,Travoloride,Antiseptics,4,785,3140,June,2018,Mary Gerrard,Britanny Bold,Delta,Low
Stehr-Champlin  ,"Towne, Cummerata and Blanda Pharm",Kalisz,Poland,51.757,18.083,Hospital,Private,Docstryl Rivacin,Antiseptics,1,789,789,June,2018,,James Goodwill,Alfa,Low
Stehr-Champlin  ,"Gleichner, Bahringer and Morar Pharma Plc",Gostynin,Poland,52.4167,19.4667,Hospital,Private,Oxymotroban Fexoformin,Analgesics,10,458,4580,June,2018,Alan Ray,James Goodwill,Alfa,Low
Lindgren-Simonis Pharm,"Kertzmann, Quitzon and Harris Pharma Plc",Reszel,Poland,54.0504,21.1458,Hospital,Government,Adideine,Mood Stabilizers,6,678,4068,June,2018,Mary Gerrard,Britanny Bold,Delta,Low
Stehr-Champlin  ,Schimmel-Waelchi Pharmaceutical Ltd,Grodzisk Mazowiecki,Poland,52.1039,20.6337,Hospital,Government,Sevoderm,Antipiretics,10,663,6630,June,2018,Jimmy Grey,Alisha Cordwell,Charlie,Low
Stehr-Champlin  ,Koss-Beier ,Nakło nad Notecią,Poland,53.1421,17.6018,Pharmacy,Retail,Choriotrisin,Antibiotics,2,591,1182,June,2018,Daniel Gates,Alisha Cordwell,Charlie,Low
Lindgren-Simonis Pharm,Carter-Conn Pharma Plc,Brwinów,Poland,52.1417,20.7167,Hospital,Private,Lansopril Acribax,Antipiretics,,492,11808,June,2018,Jimmy Grey,Alisha Cordwell,Charlie,Medium
Stehr-Champlin  ,Kling Inc Pharmaceutical Ltd,Ostrowiec Świętokrzyski,Poland,50.9333,21.4,Pharmacy,Institution,Acantaine,Antibiotics,1,66,66,June,2018,Morris Garcia,Tracy Banks,Bravo,Low
Stehr-Champlin  ,Bayer LLC Pharmaceutical Ltd,Bytów,Poland,54.1667,17.5,Hospital,Private,Tracdomide,Antipiretics,36,548,19728,June,2018,Abigail Thompson,Tracy Banks,Bravo,Medium
Lindgren-Simonis Pharm,"Nitzsche, Effertz and Maggio Pharmacy",Malbork,Poland,54.0285,19.0444,Hospital,Private,Cordamectin Actolamin,Antipiretics,3,367,1101,June,2018,Steve Pepple,Tracy Banks,Bravo,Low
Stehr-Champlin  ,"Roob, Ernser and Kub Pharmaceutical Limited",Suwałki,Poland,54.0833,22.9333,Hospital,Government,Claricriptine Adaferol,Antibiotics,2,33,66,June,2018,Abigail Thompson,Tracy Banks,Bravo,Low
Stehr-Champlin  ,"McClure, Zemlak and Dibbert Pharmaceutical Limited",Kórnik,Poland,52.2367,17.0986,Hospital,Private,Sumanazole,Analgesics,4,529,2116,June,2018,Jessica Smith,Britanny Bold,Delta,Low
Lindgren-Simonis Pharm,Kozey-Schroeder ,Jawor,Poland,51.05,16.1833,Hospital,Private,Bexridol,Antipiretics,5,80,400,June,2018,Stella Given,Alisha Cordwell,Charlie,Low
Stehr-Champlin  ,Funk PLC Pharmaceutical Limited,Mikołów,Poland,50.171,,Hospital,Government,Flutacerol,Analgesics,5,745,3725,June,2018,Erica Jones,James Goodwill,Alfa,Low
Lindgren-Simonis Pharm,Leannon-West Pharmacy,Cieszyn,Poland,49.75,18.6333,Pharmacy,Retail,Adriafinil Ehtymara,Antiseptics,96,535,51360,June,2018,Mary Gerrard,Britanny Bold,Delta,High
Beier  ,"Wiegand, Jast and Yost Pharma Plc",Płock,Poland,52.55,19.7,Hospital,Private,Temasone Thiobucil,Antimalarial,200,482,96400,June,2018,Anne Wu,Britanny Bold,Delta,High
Beier  ,Koss-Beier ,Nakło nad Notecią,Poland,53.1421,17.6018,Pharmacy,Retail,Spiroderall,Mood Stabilizers,200,653,130600,June,2018,Jimmy Grey,Alisha Cordwell,Charlie,High
Prohaska-Kuhic ,"Hansen, Fadel and Schroeder Pharm",Gniezno,Poland,52.5333,17.6,Pharmacy,Retail,Syntheruvax Proracin,Antimalarial,,86,860,June,2018,Thompson Crawford,James Goodwill,Alfa,Low
Stehr-Champlin  ,"Herman, Rice and Rippin ",Ziębice,Poland,50.6,,Hospital,Government,Ultrimax Ultriset,Antiseptics,21,269,5649,June,2018,Jimmy Grey,,Charlie,Low
Lindgren-Simonis Pharm,Veum-Kerluke Pharmacy,Człuchów,Poland,53.65,,Pharmacy,Retail,Afluferon Entrarenone,Antimalarial,5,104,520,June,2018,,James Goodwill,Alfa,Low
Stehr-Champlin  ,"McClure, Zemlak and Dibbert Pharma Plc",Gdańsk,Poland,54.3667,18.6333,Pharmacy,Retail,Zynosine,Antimalarial,3,74,222,June,2018,Jimmy Grey,Alisha Cordwell,Charlie,Low
Stehr-Champlin  ,Boyer and Sons Pharmaceutical Limited,Wałcz,Poland,53.2667,16.4667,Hospital,Government,Kinerinex,Antiseptics,3,647,1941,June,2018,Sheila Stones,Britanny Bold,Delta,Low
Stehr-Champlin  ,Steuber Ltd Pharmacy,Ostrołęka,Poland,53.0833,21.5667,Hospital,Private,Biotasol Siloderm,Antiseptics,,373,11190,June,2018,Sheila Stones,Britanny Bold,Delta,Low
Lindgren-Simonis Pharm,"Wiegand, Jast and Yost Pharma Plc",Płock,Poland,52.55,19.7,Hospital,Private,Effigine Propraprex,Antimalarial,24,377,9048,June,2018,Mary Gerrard,Britanny Bold,Delta,Medium
Stehr-Champlin  ,"Bernier, Murphy and Rau Pharmaceutical Ltd",Ruda Śląska,Poland,50.2628,18.8536,Pharmacy,Institution,Sevoderm,Antipiretics,3,663,1989,June,2018,Sheila Stones,Britanny Bold,Delta,Low
Lindgren-Simonis Pharm,Runte-Marquardt Pharmaceutical Ltd,Olecko,Poland,54.0333,22.5,Hospital,Private,Lovapur,Mood Stabilizers,8,551,4408,June,2018,Jimmy Grey,Alisha Cordwell,Charlie,Low
Lindgren-Simonis Pharm,"Sanford, Franecki and Greenholt ",Nowa Sól,Poland,51.8,15.7167,Pharmacy,Institution,Hydroxyprosyn,Antibiotics,1080,220,237600,June,2018,Daniel Gates,Alisha Cordwell,Charlie,High
Beier  ,"Beer, Kohler and Beatty Pharmaceutical Ltd",Rypin,Poland,,19.45,Pharmacy,Retail,Pulmodiol Adalaxime,Analgesics,72,605,43560,June,2018,Erica Jones,James Goodwill,Alfa,High
Stehr-Champlin  ,Hartmann-Wolf ,Trzebnica,Poland,,17.0614,Hospital,Government,Zithrotrol,Antiseptics,,137,6850,June,2018,Morris Garcia,,Bravo,Low
Stehr-Champlin  ,"Upton, Abernathy and Goodwin Pharmaceutical Ltd",Jarosław,Poland,50.0162,22.6778,Hospital,Government,Cordamectin Actolamin,Antipiretics,4,367,,June,2018,Jimmy Grey,Alisha Cordwell,Charlie,Low
Lindgren-Simonis Pharm,Vandervort LLC Pharma Plc,Łańcut,Poland,50.0687,22.2291,Pharmacy,Institution,Abranatal Lysoprosate,Antiseptics,24,681,16344,June,2018,Alan Ray,James Goodwill,Alfa,Medium
Stehr-Champlin  ,Feest PLC ,Świecie,Poland,53.4167,18.4333,Pharmacy,Retail,Trazozaprine,Mood Stabilizers,2,708,1416,June,2018,Daniel Gates,Alisha Cordwell,Charlie,Low
Stehr-Champlin  ,Haley PLC Pharmaceutical Limited,Opole,Poland,50.6722,17.9253,Pharmacy,Retail,Afaxacin,Analgesics,1,60,60,June,2018,Erica Jones,James Goodwill,Alfa,Low
Lindgren-Simonis Pharm,Hermiston and Sons Pharma Plc,Bochnia,Poland,49.9833,20.4333,Pharmacy,Institution,Diprolimus,Antiseptics,,634,0,June,2018,,James Goodwill,Alfa,Medium
Lindgren-Simonis Pharm,Pfeffer-Hodkiewicz Pharmaceutical Ltd,Szczytno,Poland,53.5628,20.9853,Hospital,Government,Abranatal Lysoprosate,Antiseptics,5,681,3405,June,2018,Anne Wu,Britanny Bold,Delta,Low
Lindgren-Simonis Pharm,"Wintheiser, Breitenberg and Gottlieb Pharmaceutical Limited",Milanówek,Poland,52.1243,20.6654,Pharmacy,Retail,Comzyme,Antibiotics,2,114,228,June,2018,Thompson Crawford,James Goodwill,Alfa,Low
Lindgren-Simonis Pharm,Lindgren-Simonis Pharm,Biskupiec,Poland,,20.9569,Pharmacy,Retail,Araxetine,Antibiotics,4,450,1800,June,2018,Morris Garcia,Tracy Banks,Bravo,Low
Prohaska-Kuhic ,West Group Pharmacy,Kluczbork,Poland,50.9833,18.2167,Hospital,Government,Effigine Propraprex,Antimalarial,1,377,377,June,2018,Stella Given,Alisha Cordwell,Charlie,Low
Beier  ,Nader-Gaylord Pharmaceutical Ltd,Łódź,Poland,51.7769,19.4547,Pharmacy,Retail,Quiniprosyn,Antiseptics,10,445,,June,2018,Erica Jones,James Goodwill,Alfa,Low
Lindgren-Simonis Pharm,Welch-Orn ,Chełmno,Poland,53.3492,18.4261,Hospital,Private,Androporin,Antiseptics,20,659,13180,June,2018,Jimmy Grey,Alisha Cordwell,Charlie,Medium
Schuppe Inc ,Kunze PLC Pharm,Darłowo,Poland,54.4167,16.4167,Hospital,Private,Doxivorin,Antimalarial,24,516,12384,June,2018,Abigail Thompson,Tracy Banks,Bravo,Medium
Stehr-Champlin  ,Powlowski-Buckridge Pharma Plc,Ustka,Poland,54.5805,16.8619,Hospital,Private,Robapril,Antipiretics,3,453,1359,June,2018,Mary Gerrard,Britanny Bold,Delta,Low
Lindgren-Simonis Pharm,"Kuphal, D'Amore and Bode Pharmaceutical Ltd",Szczecin,Poland,53.4247,14.5553,Pharmacy,Retail,Hydroxyprosyn,Antibiotics,10,220,2200,June,2018,Alan Ray,James Goodwill,Alfa,Low
Stehr-Champlin  ,"Cormier, Dietrich and Zulauf Pharma Plc",Puławy,Poland,51.4166,21.9694,Hospital,Government,Ultrimax Ultriset,Antiseptics,3,269,807,June,2018,Sheila Stones,Britanny Bold,Delta,Low
Stehr-Champlin  ,Ondricka Ltd Pharmacy,Świnoujście,Poland,53.9167,14.25,Hospital,Government,Agalsiline,Mood Stabilizers,10,64,640,July,2018,,James Goodwill,Alfa,Low
Stehr-Champlin  ,Senger-Kirlin Pharmacy,Kobyłka,Poland,52.3395,21.1959,Hospital,Government,Sevotrana Tiafoxin,Analgesics,4,460,1840,July,2018,,Britanny Bold,Delta,Low
Prohaska-Kuhic ,Cassin PLC Pharmacy,Miastko,Poland,54,16.9833,Hospital,Private,Dasagestin,Analgesics,120,386,46320,July,2018,Erica Jones,James Goodwill,Alfa,High
Cassin  ,Lesch PLC Pharmaceutical Ltd,Głuszyca,Poland,50.6874,16.3717,Pharmacy,Retail,Tesnorphine Silotamine,Antibiotics,5,319,1595,July,2018,Abigail Thompson,Tracy Banks,Bravo,Low
Cassin  ,Torp-Fisher Pharma Plc,Gorlice,Poland,49.6556,21.1604,Hospital,Government,Abranatal Lysoprosate,Antiseptics,100,681,,July,2018,Anne Wu,Britanny Bold,Delta,High
Prohaska-Kuhic ,Abernathy Group Pharmaceutical Limited,Brzesko,Poland,49.9667,20.6167,Hospital,Government,Claricriptine Adaferol,Antibiotics,4,33,132,July,2018,,Britanny Bold,Delta,Low
Cassin  ,Heller-Abernathy ,Brzeg Dolny,Poland,51.273,16.7081,Hospital,Private,Agalsiline,Mood Stabilizers,2,64,,July,2018,Abigail Thompson,Tracy Banks,Bravo,Low
Stehr-Champlin  ,Trantow LLC Pharma Plc,Braniewo,Poland,54.3833,19.8333,Pharmacy,Retail,Alimmethate Insudase,Analgesics,220,624,,July,2018,Alan Ray,James Goodwill,Alfa,High
Smith Inc ,"Haag, Bradtke and Terry Pharmacy",Biała Podlaska,Poland,52.0333,23.1167,Hospital,Government,Ultrimax Ultriset,Antiseptics,150,269,40350,July,2018,,Britanny Bold,Delta,High
Prohaska-Kuhic ,Kling Inc Pharmaceutical Ltd,Ostrowiec Świętokrzyski,Poland,50.9333,21.4,Pharmacy,Institution,Androporin,Antiseptics,-10,659,-6590,July,2018,Mary Gerrard,Britanny Bold,Delta,Low
Smith Inc ,Mraz-Kutch Pharm,Bieruń Stary,Poland,50.0897,19.0928,Pharmacy,Retail,Agalsiline,Mood Stabilizers,4,64,256,July,2018,Stella Given,Alisha Cordwell,Charlie,Low
Smith Inc ,Hill Ltd ,Gliwice,Poland,50.2976,18.6766,Pharmacy,Retail,Amlominphen Dexanovate,Analgesics,90,119,10710,July,2018,Alan Ray,James Goodwill,Alfa,Medium
Smith Inc ,"Gerhold, Mills and Effertz Pharm",Głubczyce,Poland,50.2009,17.8286,Pharmacy,Institution,Sevoderm,Antipiretics,,663,1326,July,2018,Mary Gerrard,Britanny Bold,Delta,Medium
Smith Inc ,Balistreri Group Pharmaceutical Ltd,Prudnik,Poland,50.3197,17.5792,Pharmacy,Institution,Symbiroban,Antibiotics,24,122,2928,July,2018,Steve Pepple,Tracy Banks,Bravo,Low
Prohaska-Kuhic ,"Paucek, Keeling and Bruen Pharm",Łęczna,Poland,51.3,22.8833,Pharmacy,Institution,Quiniprosyn,Antiseptics,10,445,4450,July,2018,Thompson Crawford,James Goodwill,Alfa,Low
Stehr-Champlin  ,Kuhic LLC Pharma Plc,Oborniki,Poland,52.65,16.8167,Pharmacy,Retail,Diaxolol,Antiseptics,2,765,,July,2018,Steve Pepple,,Bravo,Low
Stehr-Champlin  ,Ward Group Pharmaceutical Limited,Zabrze,Poland,50.3,18.7833,Pharmacy,Institution,Effidomide Evofribrate,Antiseptics,2,612,1224,July,2018,Sheila Stones,Britanny Bold,Delta,Low
Smith Inc ,Haley PLC Pharmaceutical Limited,Opole,Poland,50.6722,17.9253,Pharmacy,Retail,Dexmeprazole Transnuvia,Mood Stabilizers,5,180,900,July,2018,Jessica Smith,Britanny Bold,Delta,Low
Stehr-Champlin  ,Boyer and Sons Pharmaceutical Limited,Wałcz,Poland,53.2667,,Hospital,Government,Duraprazole Agalsixolol,Antiseptics,2,375,750,July,2018,Sheila Stones,Britanny Bold,Delta,Low
Prohaska-Kuhic ,Barton Ltd Pharma Plc,Czeladź,Poland,50.3333,19.0833,Hospital,Private,Factolamide,Antiseptics,10,345,3450,July,2018,Mary Gerrard,Britanny Bold,Delta,Low
Prohaska-Kuhic ,Buckridge-Davis ,Legnica,Poland,51.2101,16.1619,Hospital,Private,Topitaine,Mood Stabilizers,,517,25850,July,2018,Sheila Stones,Britanny Bold,Delta,Medium
Stehr-Champlin  ,McCullough LLC Pharma Plc,Częstochowa,Poland,50.8,19.1167,Pharmacy,Retail,Symbitrim,Analgesics,1,536,536,July,2018,Jessica Smith,Britanny Bold,Delta,Low
Beier  ,Spencer-Jerde Pharmacy,Przeworsk,Poland,50.0591,22.4941,Pharmacy,Institution,Araxetine,Antibiotics,,450,40500,July,2018,Steve Pepple,Tracy Banks,Bravo,Medium
Stehr-Champlin  ,Okuneva-Corkery ,Kostrzyn nad Odrą,Poland,52.5883,14.6667,Hospital,Government,Ketastadil,Analgesics,3,763,2289,July,2018,Jimmy Grey,Alisha Cordwell,Charlie,Low
Stehr-Champlin  ,"Crist, Wisoky and Nolan Pharmaceutical Ltd",Toruń,Poland,53.0167,18.6167,Pharmacy,Retail,Victomine,Antimalarial,,705,1410,July,2018,Alan Ray,James Goodwill,Alfa,Medium
Stehr-Champlin  ,Streich PLC Pharmaceutical Limited,Przemyśl,Poland,49.785,22.7673,Pharmacy,Institution,Afluferon Entrarenone,Antimalarial,10,104,1040,July,2018,Mary Gerrard,Britanny Bold,Delta,Low
Stehr-Champlin  ,"Greenholt, Donnelly and O'Reilly Pharmaceutical Limited",Rumia,Poland,,18.4,Pharmacy,Retail,Fentatrol Rapatelase,Antibiotics,6,458,2748,July,2018,Steve Pepple,Tracy Banks,Bravo,Low
Stehr-Champlin  ,Roob PLC ,Świedbodzin,Poland,52.25,15.5333,Pharmacy,Institution,Clinolan Pitoletra,Mood Stabilizers,50,130,6500,July,2018,Morris Garcia,Tracy Banks,Bravo,Low
Stehr-Champlin  ,Erdman PLC Pharmacy,Ozimek,Poland,50.6731,18.2131,Pharmacy,Institution,Betanem,Analgesics,2,611,,July,2018,Alan Ray,James Goodwill,Alfa,Low
Schuppe Inc ,Heidenreich Group Pharmaceutical Ltd,Rzeszów,Poland,50.05,22,Pharmacy,Institution,Ranediol,Antibiotics,200,401,,July,2018,Abigail Thompson,Tracy Banks,Bravo,High
Cassin  ,"Spinka, Schowalter and Conn Pharmaceutical Limited",Biłgoraj,Poland,50.55,22.7333,Pharmacy,Institution,Menogine,Antiseptics,10,742,7420,July,2018,Sheila Stones,Britanny Bold,Delta,Low
Stehr-Champlin  ,"Bernier, Murphy and Rau Pharmaceutical Ltd",Ruda Śląska,Poland,50.2628,,Pharmacy,Institution,Factofribrate,Mood Stabilizers,8,99,792,July,2018,Jessica Smith,Britanny Bold,Delta,Low
Smith Inc ,"Nitzsche, Effertz and Maggio Pharmacy",Malbork,Poland,54.0285,19.0444,Hospital,Private,Ultrimax Ultriset,Antiseptics,6,269,1614,July,2018,Stella Given,Alisha Cordwell,Charlie,Low
Beier  ,"Balistreri, Torp and Gulgowski Pharmacy",Chełmża,Poland,53.2,18.6,Hospital,Private,Primapion,Antibiotics,10,492,4920,July,2018,Alan Ray,James Goodwill,Alfa,Low
Stehr-Champlin  ,"Lebsack, Yost and Heller Pharmaceutical Limited",Wieliczka,Poland,49.9894,20.0661,Pharmacy,Institution,Primapion,Antibiotics,10,492,4920,July,2018,Mary Gerrard,,Delta,Low
Stehr-Champlin  ,Stehr-Champlin Pharmaceutical Limited,Nowe Miasto Lubawskie,Poland,53.4167,19.5833,Hospital,Government,Tracdomide,Antipiretics,1,548,548,July,2018,Anne Wu,Britanny Bold,Delta,Low
Smith Inc ,Stehr-Champlin Pharmaceutical Limited,Nowe Miasto Lubawskie,Poland,53.4167,19.5833,Hospital,Government,Alemtuvatol Megalinum,Analgesics,20,682,13640,July,2018,Thompson Crawford,James Goodwill,Alfa,Medium
Rohan   ,Breitenberg-Kuhn Pharmacy,Radom,Poland,51.4036,21.1567,Hospital,Private,Ketastadil,Analgesics,120,763,,July,2018,Thompson Crawford,James Goodwill,Alfa,High
Stehr-Champlin  ,"Zieme, Doyle and Kunze ",Lublin,Poland,51.2333,22.5667,Hospital,Private,Apromin,Antiseptics,4,375,1500,July,2018,Jimmy Grey,Alisha Cordwell,Charlie,Low
Stehr-Champlin  ,Jakubowski Inc Pharmaceutical Limited,Bolesławiec,Poland,,15.5667,Pharmacy,Retail,Choriotrisin,Antibiotics,10,591,5910,July,2018,Morris Garcia,Tracy Banks,Bravo,Low
Prohaska-Kuhic ,"Harris, Daugherty and Okuneva Pharma Plc",Krotoszyn,Poland,51.697,,Pharmacy,Retail,Kinovatol,Analgesics,45,370,16650,July,2018,Daniel Gates,,Charlie,Medium
Rohan   ,Fadel-West ,Złotoryja,Poland,51.1264,15.9198,Pharmacy,Institution,Formolovir Amanferon,Analgesics,50,191,9550,July,2018,Morris Garcia,Tracy Banks,Bravo,Medium
Stehr-Champlin  ,Schaden-Hirthe Pharmaceutical Ltd,Świdnica,Poland,50.8438,16.4886,Pharmacy,Institution,Pentastrin,Antibiotics,,497,,July,2018,Anne Wu,Britanny Bold,Delta,Medium
Prohaska-Kuhic ,Kreiger Inc Pharma Plc,Mielec,Poland,50.2833,21.4333,Hospital,Private,Dasagestin,Analgesics,2,386,772,July,2018,Steve Pepple,Tracy Banks,Bravo,Low
Stehr-Champlin  ,"Bernier, Murphy and Rau Pharmaceutical Ltd",Ruda Śląska,Poland,50.2628,18.8536,Pharmacy,Institution,Saprodeine Zanprosyn,Antibiotics,,215,645,July,2018,Erica Jones,James Goodwill,Alfa,Low
Stehr-Champlin  ,Feest PLC ,Świecie,Poland,53.4167,18.4333,Pharmacy,Retail,Presetron,Mood Stabilizers,15,216,3240,July,2018,Stella Given,Alisha Cordwell,Charlie,Low
Stehr-Champlin  ,Lemke Ltd Pharm,Tarnów,Poland,50.0125,20.9883,Hospital,Private,Asparathasone Unipan,Antibiotics,5,153,765,July,2018,Thompson Crawford,James Goodwill,Alfa,Low
Stehr-Champlin  ,Koss-Beier ,Nakło nad Notecią,Poland,53.1421,17.6018,Pharmacy,Retail,Cephozumab Synmethate,Antibiotics,10,768,7680,July,2018,Jimmy Grey,Alisha Cordwell,Charlie,Low
Stehr-Champlin  ,"Erdman, Senger and Oberbrunner Pharm",Rawa Mazowiecka,Poland,51.7667,20.25,Pharmacy,Retail,Tracdomide,Antipiretics,10,548,5480,July,2018,Morris Garcia,Tracy Banks,Bravo,Low
Stehr-Champlin  ,"Haag, Bradtke and Terry Pharmacy",Biała Podlaska,Poland,52.0333,23.1167,Hospital,Government,Propralamide Dexlanzolam,Mood Stabilizers,10,391,3910,July,2018,Jimmy Grey,Alisha Cordwell,Charlie,Low
Prohaska-Kuhic ,Lockman-Welch Pharm,Bytom,Poland,50.347,18.923,Hospital,Government,Ketastadil,Analgesics,10,763,7630,July,2018,Jimmy Grey,Alisha Cordwell,Charlie,Low
Beier  ,Steuber Ltd Pharmacy,Ostrołęka,Poland,53.0833,21.5667,Hospital,Private,Cephovelam,Mood Stabilizers,90,542,48780,July,2018,Sheila Stones,Britanny Bold,Delta,High
Stehr-Champlin  ,Crona Group Pharma Plc,Kwidzyn,Poland,53.7358,18.9308,Pharmacy,Institution,Tracdomide,Antipiretics,6,548,3288,July,2018,Daniel Gates,Alisha Cordwell,Charlie,Low
Stehr-Champlin  ,Monahan Ltd ,Oświęcim,Poland,50.0333,19.2333,Hospital,Government,Aquamycin Lacoran,Analgesics,7,345,2415,July,2018,Mary Gerrard,,Delta,Low
Stehr-Champlin  ,"Grimes, Jacobs and Durgan Pharm",Bełchatów,Poland,51.3667,19.3667,Hospital,Private,Acycpex,Mood Stabilizers,5,510,2550,July,2018,Erica Jones,James Goodwill,Alfa,Low
Stehr-Champlin  ,Schaefer LLC Pharmacy,Kamień Pomorski,Poland,53.9697,14.7858,Hospital,Government,Acelimus,Analgesics,5,746,3730,July,2018,Mary Gerrard,Britanny Bold,Delta,Low
Stehr-Champlin  ,Raynor-Graham Pharmaceutical Limited,Gorzów Wielkopolski,Poland,52.7333,15.25,Pharmacy,Institution,Testant,Mood Stabilizers,864,488,421632,July,2018,Anne Wu,Britanny Bold,Delta,High
Stehr-Champlin  ,Barrows Inc ,Hajnówka,Poland,52.7333,23.5667,Hospital,Private,Tiaracil,Antipiretics,3,162,486,July,2018,Morris Garcia,Tracy Banks,Bravo,Low
Stehr-Champlin  ,"Kilback, Beer and Batz Pharma Plc",Kutno,Poland,52.2333,19.3667,Pharmacy,Retail,Cogxone Levanide,Antimalarial,10,686,6860,July,2018,Steve Pepple,Tracy Banks,Bravo,Low
Stehr-Champlin  ,Cassin PLC Pharmacy,Miastko,Poland,54,16.9833,Hospital,Private,Proderal,Antiseptics,6,34,,July,2018,Morris Garcia,Tracy Banks,Bravo,Low
Stehr-Champlin  ,"Zieme, Doyle and Kunze ",Lublin,Poland,51.2333,22.5667,Hospital,Private,Ribabyclor,Antiseptics,,469,938,July,2018,Morris Garcia,Tracy Banks,Bravo,Medium
Smith Inc ,Kertzmann-Ward Pharma Plc,Opoczno,Poland,51.3833,20.2833,Pharmacy,Institution,Dexacilin Triline,Analgesics,3,129,387,July,2018,Abigail Thompson,Tracy Banks,Bravo,Low
Stehr-Champlin  ,Rohan Inc ,Chojnów,Poland,51.2667,15.9333,Pharmacy,Institution,Ergomethate,Mood Stabilizers,,604,3020,July,2018,Sheila Stones,Britanny Bold,Delta,Medium
Smith Inc ,"Upton, Abernathy and Goodwin Pharmaceutical Ltd",Jarosław,Poland,50.0162,22.6778,Hospital,Government,Nevanide Actozide,Antibiotics,,773,,July,2018,Abigail Thompson,Tracy Banks,Bravo,Medium
Cassin  ,"Spinka, Schowalter and Conn Pharmaceutical Limited",Biłgoraj,Poland,50.55,22.7333,Pharmacy,Institution,Allomenda,Antipiretics,20,487,9740,July,2018,Morris Garcia,Tracy Banks,Bravo,Medium
Prohaska-Kuhic ,Hayes-Kilback Pharmaceutical Ltd,Żary,Poland,51.6333,15.1333,Pharmacy,Retail,Acelimus,Analgesics,90,746,67140,July,2018,Jimmy Grey,Alisha Cordwell,Charlie,High
Beier  ,Leuschke PLC Pharmacy,Ciechanów,Poland,52.8817,20.6106,Pharmacy,Retail,Menogine,Antiseptics,2,742,1484,August,2018,Abigail Thompson,Tracy Banks,Bravo,Low
Stehr-Champlin  ,Okuneva-Corkery ,Kostrzyn nad Odrą,Poland,52.5883,14.6667,Hospital,Government,Zyvance,Analgesics,5,323,1615,August,2018,Steve Pepple,Tracy Banks,Bravo,Low
Stehr-Champlin  ,Funk PLC Pharmaceutical Limited,Mikołów,Poland,50.171,18.9041,Hospital,Government,Formolovir Amanferon,Analgesics,10,191,1910,August,2018,Sheila Stones,Britanny Bold,Delta,Low
Stehr-Champlin  ,Kertzmann-Ward Pharma Plc,Opoczno,Poland,51.3833,20.2833,Pharmacy,Institution,Oxymotroban Fexoformin,Analgesics,80,458,36640,August,2018,Alan Ray,James Goodwill,Alfa,High
Cassin  ,"Yundt, Leuschke and Ward Pharmaceutical Ltd",Żychlin,Poland,52.2453,19.6236,Hospital,Government,Sevotrana Tiafoxin,Analgesics,50,460,23000,August,2018,Stella Given,Alisha Cordwell,Charlie,Medium
Stehr-Champlin  ,"Steuber, Skiles and Kilback Pharma Plc",Sosnowiec,Poland,50.3,19.1667,Pharmacy,Retail,Microroban Afatigomar,Antimalarial,10,478,4780,August,2018,Steve Pepple,Tracy Banks,Bravo,Low
Prohaska-Kuhic ,Feest-Kshlerin Pharmaceutical Ltd,Świdnik,Poland,51.2333,,Pharmacy,Institution,Afretosine,Mood Stabilizers,10,404,4040,August,2018,Mary Gerrard,Britanny Bold,Delta,Low
Stehr-Champlin  ,Prohaska-Kuhic Pharmacy,Wisła,Poland,49.6667,18.8667,Pharmacy,Institution,Allomenda,Antipiretics,,487,4870,August,2018,Sheila Stones,Britanny Bold,Delta,Medium
Beier  ,Bosco-Marquardt Pharm,Lębork,Poland,54.55,17.75,Hospital,Private,Antilamin Clinbital,Antibiotics,100,664,66400,August,2018,,Tracy Banks,Bravo,High
Smith Inc ,Purdy Ltd Pharmaceutical Limited,Głuchołazy,Poland,50.3131,17.3742,Hospital,Government,Aldevac,Analgesics,1,26,26,August,2018,Mary Gerrard,Britanny Bold,Delta,Low
Beier  ,Feest-Roob Pharmaceutical Ltd,Wolsztyn,Poland,52.1167,16.1167,Pharmacy,Institution,Fosinofen,Antipiretics,1,385,385,August,2018,Erica Jones,James Goodwill,Alfa,Low
Stehr-Champlin  ,Lockman Ltd ,Połaniec,Poland,,21.2833,Pharmacy,Institution,Aciprex,Antipiretics,50,421,21050,August,2018,Morris Garcia,Tracy Banks,Bravo,Medium
Smith Inc ,Schaden-Hirthe Pharmaceutical Ltd,Świdnica,Poland,50.8438,16.4886,Pharmacy,Institution,Formolovir Amanferon,Analgesics,110,191,21010,August,2018,Jessica Smith,Britanny Bold,Delta,Medium
Smith Inc ,"Johnson, Friesen and Torphy Pharma Plc",Gryfino,Poland,,14.4883,Hospital,Government,Cephozumab Synmethate,Antibiotics,100,768,76800,August,2018,Abigail Thompson,Tracy Banks,Bravo,High
Smith Inc ,Will and Sons Pharma Plc,Gniew,Poland,53.8333,18.8333,Pharmacy,Retail,Afaxacin,Analgesics,102,60,6120,August,2018,,James Goodwill,Alfa,Low
Smith Inc ,Breitenberg-Kuhn Pharmacy,Radom,Poland,51.4036,21.1567,Hospital,Private,Requimadin,Antimalarial,20,408,,August,2018,Morris Garcia,,Bravo,Medium
Smith Inc ,"Bogan, Jacobs and Kris Pharmacy",Lubartów,Poland,51.4667,22.6,Pharmacy,Institution,Ranediol,Antibiotics,,401,,August,2018,Thompson Crawford,James Goodwill,Alfa,Medium
Beier  ,"Haag, Bradtke and Terry Pharmacy",Biała Podlaska,Poland,52.0333,23.1167,Hospital,Government,Tetalamide,Antibiotics,,430,8600,August,2018,Alan Ray,James Goodwill,Alfa,Medium
Beier  ,"Herman, Rice and Rippin ",Ziębice,Poland,50.6,17.0444,Hospital,Government,Cogxone Levanide,Antimalarial,146,686,,August,2018,Daniel Gates,Alisha Cordwell,Charlie,High
Stehr-Champlin  ,Zemlak-Witting Pharmacy,Międzyrzecz,Poland,52.4446,15.578,Pharmacy,Institution,Alarudin Azarolac,Mood Stabilizers,20,567,11340,August,2018,Jimmy Grey,Alisha Cordwell,Charlie,Medium
Smith Inc ,Mills Inc Pharma Plc,Bydgoszcz,Poland,53.1167,18,Hospital,Private,Dexmeprazole Transnuvia,Mood Stabilizers,10,180,1800,August,2018,Jimmy Grey,,Charlie,Low
Beier  ,Rohan Inc ,Chojnów,Poland,51.2667,15.9333,Pharmacy,Institution,Oxymotroban Fexoformin,Analgesics,30,458,13740,August,2018,Thompson Crawford,James Goodwill,Alfa,Medium
Cassin  ,Schaden-Hirthe Pharmaceutical Ltd,Świdnica,Poland,50.8438,16.4886,Pharmacy,Institution,Spiroderall,Mood Stabilizers,20,653,13060,August,2018,Sheila Stones,Britanny Bold,Delta,Medium
Smith Inc ,Zemlak Group Pharmaceutical Limited,Koszalin,Poland,54.1903,16.1817,Hospital,Private,Tetratanyl,Antimalarial,96,511,,August,2018,Erica Jones,James Goodwill,Alfa,High
Stehr-Champlin  ,Doyle-Tillman Pharmaceutical Ltd,Dęblin,Poland,51.5667,21.8614,Hospital,Private,Eproline,Antibiotics,3,780,2340,August,2018,Erica Jones,James Goodwill,Alfa,Low
Beier  ,Rohan Inc ,Chojnów,Poland,51.2667,15.9333,Pharmacy,Institution,Abobozolid,Antimalarial,146,75,10950,August,2018,Morris Garcia,Tracy Banks,Bravo,Medium
Rohan   ,Kling Inc Pharmaceutical Ltd,Ostrowiec Świętokrzyski,Poland,50.9333,21.4,Pharmacy,Institution,Interzide,Antimalarial,5,420,2100,August,2018,Abigail Thompson,Tracy Banks,Bravo,Low
Smith Inc ,Buckridge-Strosin Pharmaceutical Limited,Pruszków,Poland,52.1667,20.8,Hospital,Government,Primapion,Antibiotics,4,492,1968,August,2018,Jessica Smith,Britanny Bold,Delta,Low
Smith Inc ,"Steuber, Skiles and Kilback Pharma Plc",Sosnowiec,Poland,50.3,19.1667,Pharmacy,Retail,Aquamycin Lacoran,Analgesics,,345,,August,2018,Jimmy Grey,Alisha Cordwell,Charlie,Low
Smith Inc ,"Sanford, Franecki and Greenholt ",Nowa Sól,Poland,51.8,15.7167,Pharmacy,Institution,Ketastadil,Analgesics,1,763,763,August,2018,Jessica Smith,Britanny Bold,Delta,Low
Cassin  ,"McClure, Zemlak and Dibbert Pharmaceutical Limited",Kórnik,Poland,52.2367,,Hospital,Private,Zonixamine Immulinum,Analgesics,5,298,1490,August,2018,,James Goodwill,Alfa,Low
Stehr-Champlin  ,Bashirian-Kassulke Pharma Plc,Kraków,Poland,50.0614,19.9372,Hospital,Private,Malaxolol Aeroprosyn,Antiseptics,3,502,1506,August,2018,Abigail Thompson,Tracy Banks,Bravo,Low
Beier  ,Will and Sons Pharma Plc,Gniew,Poland,53.8333,18.8333,Pharmacy,Retail,Diazemid Felcept,Analgesics,15,613,9195,August,2018,Anne Wu,Britanny Bold,Delta,Medium
Cassin  ,Romaguera-Fay Pharmaceutical Limited,Trzemeszno,Poland,52.5614,17.8231,Pharmacy,Retail,Propralamide Dexlanzolam,Mood Stabilizers,10,391,3910,August,2018,Alan Ray,James Goodwill,Alfa,Low
Smith Inc ,Schaefer LLC Pharmacy,Kamień Pomorski,Poland,,14.7858,Hospital,Government,Relenstrel Exurabine,Antibiotics,,424,424,August,2018,Alan Ray,James Goodwill,Alfa,Medium
Cassin  ,Steuber Ltd Pharmacy,Ostrołęka,Poland,53.0833,21.5667,Hospital,Private,Alisteride Pemidizem,Antiseptics,50,35,1750,August,2018,Mary Gerrard,Britanny Bold,Delta,Low
Stehr-Champlin  ,Ward Group Pharmaceutical Limited,Zabrze,Poland,50.3,18.7833,Pharmacy,Institution,Zonixamine Immulinum,Analgesics,90,298,26820,August,2018,Steve Pepple,Tracy Banks,Bravo,High
Beier  ,"Kilback, Beer and Batz Pharma Plc",Kutno,Poland,52.2333,19.3667,Pharmacy,Retail,Abilovir Aprotasol,Antipiretics,30,269,8070,August,2018,Daniel Gates,Alisha Cordwell,Charlie,Medium
Prohaska-Kuhic ,"Kuphal, D'Amore and Bode Pharmaceutical Ltd",Szczecin,Poland,53.4247,14.5553,Pharmacy,Retail,Albuterenone,Antimalarial,120,82,9840,August,2018,Daniel Gates,Alisha Cordwell,Charlie,Medium
Stehr-Champlin  ,"Sanford, Franecki and Greenholt ",Nowa Sól,Poland,51.8,,Pharmacy,Institution,Aclonuma,Antimalarial,40,474,,August,2018,Jimmy Grey,Alisha Cordwell,Charlie,Medium
Smith Inc ,Buckridge-Davis ,Legnica,Poland,51.2101,16.1619,Hospital,Private,Interzide,Antimalarial,2,420,840,August,2018,Mary Gerrard,Britanny Bold,Delta,Low
Stehr-Champlin  ,Lesch PLC Pharmaceutical Ltd,Głuszyca,Poland,50.6874,16.3717,Pharmacy,Retail,Tetalamide,Antibiotics,5,430,2150,August,2018,Jimmy Grey,Alisha Cordwell,Charlie,Low
Prohaska-Kuhic ,Bosco-Marquardt Pharm,Lębork,Poland,54.55,17.75,Hospital,Private,Topipizole,Mood Stabilizers,4,368,1472,August,2018,Stella Given,Alisha Cordwell,Charlie,Low
Cassin  ,Bartoletti-Altenwerth ,Police,Poland,53.55,14.5708,Hospital,Government,Topipizole,Mood Stabilizers,,368,3680,August,2018,Sheila Stones,Britanny Bold,Delta,Low
Cassin  ,Trantow LLC Pharma Plc,Braniewo,Poland,54.3833,19.8333,Pharmacy,Retail,Acubulin,Antipiretics,3,490,1470,August,2018,Steve Pepple,Tracy Banks,Bravo,Low
Smith Inc ,Bayer LLC Pharmaceutical Ltd,Bytów,Poland,54.1667,17.5,Hospital,Private,Victomine,Antimalarial,1,705,705,August,2018,Jessica Smith,Britanny Bold,Delta,Low
Stehr-Champlin  ,Hermiston LLC ,Strzegom,Poland,51,,Pharmacy,Institution,Rositroban,Mood Stabilizers,6,481,2886,August,2018,Daniel Gates,Alisha Cordwell,Charlie,Low
Beier  ,Feest-Roob Pharmaceutical Ltd,Wolsztyn,Poland,52.1167,16.1167,Pharmacy,Institution,Propratecan,Antimalarial,5,682,3410,August,2018,Mary Gerrard,Britanny Bold,Delta,Low
Stehr-Champlin  ,Hill Ltd ,Gliwice,Poland,50.2976,18.6766,Pharmacy,Retail,Diazemid Felcept,Analgesics,40,613,24520,August,2018,Morris Garcia,Tracy Banks,Bravo,High
Beier  ,"Schowalter, Runolfsson and VonRueden Pharmaceutical Ltd",Grudziądz,Poland,53.4925,18.7761,Pharmacy,Retail,Alimmethate Insudase,Analgesics,40,624,24960,August,2018,Jimmy Grey,Alisha Cordwell,Charlie,High
Rohan   ,"Parisian, Hagenes and Skiles Pharma Plc",Ciechocinek,Poland,52.8833,18.7833,Pharmacy,Retail,Adtiza Gammaluble,Antibiotics,2,452,904,August,2018,Morris Garcia,Tracy Banks,Bravo,Low
Smith Inc ,Ritchie-Rodriguez Pharm,Łuków,Poland,51.9167,22.3833,Pharmacy,Retail,Brimorix Amonine,Antibiotics,3,398,1194,August,2018,Erica Jones,,Alfa,Low
Smith Inc ,Runte-Marquardt Pharmaceutical Ltd,Olecko,Poland,54.0333,22.5,Hospital,Private,Asparathasone Unipan,Antibiotics,6,153,918,August,2018,Erica Jones,James Goodwill,Alfa,Low
Beier  ,Rowe PLC Pharmaceutical Ltd,Kęty,Poland,49.8821,19.2233,Pharmacy,Institution,Lacoplex Hyaluvance,Mood Stabilizers,50,334,16700,August,2018,Morris Garcia,Tracy Banks,Bravo,Medium
Prohaska-Kuhic ,"Haag, Bradtke and Terry Pharmacy",Biała Podlaska,Poland,52.0333,23.1167,Hospital,Government,Doxivorin,Antimalarial,,516,12384,August,2018,Steve Pepple,Tracy Banks,Bravo,Medium
Stehr-Champlin  ,Koch-Osinski Pharm,Sandomierz,Poland,50.6833,21.75,Hospital,Government,Choriogestrel,Antiseptics,2,347,694,August,2018,Erica Jones,James Goodwill,Alfa,Low
Prohaska-Kuhic ,Veum-Kerluke Pharmacy,Człuchów,Poland,53.65,17.3667,Pharmacy,Retail,Malavirine Alimdine,Mood Stabilizers,5,767,,August,2018,Abigail Thompson,Tracy Banks,Bravo,Low
Prohaska-Kuhic ,Hermiston and Sons Pharma Plc,Bochnia,Poland,49.9833,20.4333,Pharmacy,Institution,Temasone Thiobucil,Antimalarial,150,482,72300,August,2018,Sheila Stones,Britanny Bold,Delta,High
Stehr-Champlin  ,Okuneva-Corkery ,Kostrzyn nad Odrą,Poland,52.5883,14.6667,Hospital,Government,Quixitriptan Alanesin,Antiseptics,90,79,7110,August,2018,Mary Gerrard,Britanny Bold,Delta,Low
Stehr-Champlin  ,Moore PLC Pharmaceutical Ltd,Łomża,Poland,53.1833,22.0833,Pharmacy,Retail,Duraprazole Agalsixolol,Antiseptics,20,375,7500,August,2018,Jessica Smith,Britanny Bold,Delta,Low
Smith Inc ,"Balistreri, Torp and Gulgowski Pharmacy",Chełmża,Poland,53.2,18.6,Hospital,Private,Relenstrel Exurabine,Antibiotics,4,424,1696,August,2018,Jimmy Grey,Alisha Cordwell,Charlie,Low
Prohaska-Kuhic ,Barrows Inc ,Hajnówka,Poland,52.7333,23.5667,Hospital,Private,Fentatrol Rapatelase,Antibiotics,,458,1832,August,2018,Anne Wu,Britanny Bold,Delta,Medium
Smith Inc ,Kozey-Schroeder ,Jawor,Poland,51.05,16.1833,Hospital,Private,Secrelazine Insonamic,Antipiretics,30,694,20820,August,2018,Daniel Gates,Alisha Cordwell,Charlie,Medium
Stehr-Champlin  ,Lockman Ltd ,Połaniec,Poland,50.4333,21.2833,Pharmacy,Institution,Agalsiline,Mood Stabilizers,1,64,64,August,2018,Jimmy Grey,Alisha Cordwell,Charlie,Low
Smith Inc ,"Schowalter, Runolfsson and VonRueden Pharmaceutical Ltd",Grudziądz,Poland,53.4925,18.7761,Pharmacy,Retail,Clindaracil,Analgesics,4,173,692,August,2018,Mary Gerrard,Britanny Bold,Delta,Low
Prohaska-Kuhic ,Schaefer-Rolfson ,Niepołomice,Poland,50.0339,20.2172,Hospital,Private,Pulmogen Alitora,Antiseptics,3,647,1941,August,2018,Jimmy Grey,Alisha Cordwell,Charlie,Low
Beier  ,Crist Inc ,Stary Sącz,Poland,49.5625,20.6364,Hospital,Private,Ionclotide,Analgesics,20,631,12620,August,2018,Jessica Smith,Britanny Bold,Delta,Medium
Beier  ,Torp-Fisher Pharma Plc,Gorlice,Poland,49.6556,21.1604,Hospital,Government,Kiovax Tercorolac,Analgesics,10,722,7220,August,2018,Steve Pepple,,Bravo,Low
Smith Inc ,"Crist, Wisoky and Nolan Pharmaceutical Ltd",Toruń,Poland,53.0167,,Pharmacy,Retail,Lansopril Acribax,Antipiretics,,492,492,August,2018,Steve Pepple,Tracy Banks,Bravo,Medium
Rohan   ,"Nolan, DuBuque and Schultz Pharm",Wałbrzych,Poland,50.7667,16.2833,Hospital,Government,Eproline,Antibiotics,,780,24180,August,2018,,,Charlie,Medium
Stehr-Champlin  ,"Grimes, Jacobs and Durgan Pharm",Bełchatów,Poland,51.3667,19.3667,Hospital,Private,Quiniprosyn,Antiseptics,12,445,5340,August,2018,Sheila Stones,Britanny Bold,Delta,Low
Prohaska-Kuhic ,Mraz-Kutch Pharm,Bieruń Stary,Poland,50.0897,19.0928,Pharmacy,Retail,Alarudin Azarolac,Mood Stabilizers,,567,90720,August,2018,Jessica Smith,Britanny Bold,Delta,Medium
Beier  ,Haley PLC Pharmaceutical Limited,Opole,Poland,50.6722,17.9253,Pharmacy,Retail,Dorzovorin Pentadarone,Antimalarial,36,164,5904,August,2018,,Tracy Banks,Bravo,Low
Smith Inc ,"Kertzmann, Quitzon and Harris Pharma Plc",Reszel,Poland,54.0504,21.1458,Hospital,Government,Hydroxyprosyn,Antibiotics,2,220,440,August,2018,Morris Garcia,Tracy Banks,Bravo,Low
Prohaska-Kuhic ,Kozey-Schroeder ,Jawor,Poland,51.05,16.1833,Hospital,Private,Albudazole Erobloc,Antiseptics,480,563,270240,August,2018,Morris Garcia,Tracy Banks,Bravo,High
Smith Inc ,Botsford PLC Pharmacy,Pabianice,Poland,51.6642,19.35,Pharmacy,Institution,Adrecetam Barazoxane,Antimalarial,2,24,48,August,2018,Jessica Smith,Britanny Bold,Delta,Low
Stehr-Champlin  ,Streich PLC Pharmaceutical Limited,Przemyśl,Poland,49.785,22.7673,Pharmacy,Institution,Tracdomide,Antipiretics,40,548,21920,August,2018,Erica Jones,James Goodwill,Alfa,Medium
Rohan   ,Koch-Osinski Pharm,Sandomierz,Poland,,21.75,Hospital,Government,Primatate Univatol,Mood Stabilizers,50,172,8600,August,2018,,Alisha Cordwell,Charlie,Medium
Prohaska-Kuhic ,Barton Ltd Pharma Plc,Czeladź,Poland,50.3333,19.0833,Hospital,Private,Fentalac,Antipiretics,324,618,200232,August,2018,Alan Ray,James Goodwill,Alfa,High
Stehr-Champlin  ,Heller-Abernathy ,Brzeg Dolny,Poland,51.273,16.7081,Hospital,Private,Flutacerol,Analgesics,2,745,1490,August,2018,Abigail Thompson,Tracy Banks,Bravo,Low
Beier  ,Funk and Sons Pharmaceutical Limited,Tarnobrzeg,Poland,50.5833,21.6833,Pharmacy,Retail,Enzastryl,Antiseptics,,26,780,August,2018,Morris Garcia,Tracy Banks,Bravo,Low
Prohaska-Kuhic ,Leannon-West Pharmacy,Cieszyn,Poland,49.75,18.6333,Pharmacy,Retail,Comzyme,Antibiotics,5,114,,August,2018,Morris Garcia,Tracy Banks,Bravo,Low
Rohan   ,Spencer-Jerde Pharmacy,Przeworsk,Poland,50.0591,22.4941,Pharmacy,Institution,Victomax,Analgesics,3,623,1869,August,2018,Thompson Crawford,James Goodwill,Alfa,Low
Smith Inc ,Bosco-Marquardt Pharm,Lębork,Poland,54.55,17.75,Hospital,Private,Abranatal Lysoprosate,Antiseptics,5,681,,August,2018,Abigail Thompson,Tracy Banks,Bravo,Low
Stehr-Champlin  ,Haley PLC Pharmaceutical Limited,Opole,Poland,50.6722,17.9253,Pharmacy,Retail,Hydroxyprosyn,Antibiotics,5,220,1100,August,2018,Jimmy Grey,Alisha Cordwell,Charlie,Low
Beier  ,Welch-Orn ,Chełmno,Poland,53.3492,18.4261,Hospital,Private,Invisteride Diclomycin,Mood Stabilizers,10,452,4520,August,2018,Sheila Stones,Britanny Bold,Delta,Low
Stehr-Champlin  ,"Kuphal, D'Amore and Bode Pharmaceutical Ltd",Szczecin,Poland,53.4247,14.5553,Pharmacy,Retail,Angioparin Brimosumab,Mood Stabilizers,20,682,13640,August,2018,Erica Jones,James Goodwill,Alfa,Medium
Smith Inc ,Rohan PLC Pharmaceutical Limited,Krynica,Poland,49.4222,20.9594,Pharmacy,Retail,Zynosine,Antimalarial,2,74,148,August,2018,Daniel Gates,Alisha Cordwell,Charlie,Low
Stehr-Champlin  ,Lockman-Welch Pharm,Bytom,Poland,50.347,18.923,Hospital,Government,Trazobalamin,Mood Stabilizers,,762,,August,2018,Thompson Crawford,James Goodwill,Alfa,Medium
Stehr-Champlin  ,"Paucek, Keeling and Bruen Pharm",Łęczna,Poland,51.3,22.8833,Pharmacy,Institution,Acelimus,Analgesics,40,746,,August,2018,Alan Ray,James Goodwill,Alfa,High
Stehr-Champlin  ,Leuschke PLC Pharmacy,Ciechanów,Poland,52.8817,20.6106,Pharmacy,Retail,Insozyme,Antiseptics,100,655,65500,August,2018,Erica Jones,James Goodwill,Alfa,High
Stehr-Champlin  ,Erdman PLC Pharmacy,Ozimek,Poland,50.6731,18.2131,Pharmacy,Institution,Fentatrol Rapatelase,Antibiotics,6,458,,August,2018,,James Goodwill,Alfa,Low
Stehr-Champlin  ,Waelchi LLC Pharmacy,Katowice,Poland,50.25,19,Hospital,Government,Quiniprosyn,Antiseptics,48,445,21360,August,2018,Daniel Gates,Alisha Cordwell,Charlie,Medium
Stehr-Champlin  ,Bashirian-Kassulke Pharma Plc,Kraków,Poland,50.0614,19.9372,Hospital,Private,Eproline,Antibiotics,5,780,3900,August,2018,Jessica Smith,Britanny Bold,Delta,Low
Smith Inc ,Schaefer-Rolfson ,Niepołomice,Poland,,20.2172,Hospital,Private,Symdocet,Antipiretics,5,470,2350,August,2018,Alan Ray,James Goodwill,Alfa,Low
Stehr-Champlin  ,Nader-Gaylord Pharmaceutical Ltd,Łódź,Poland,51.7769,19.4547,Pharmacy,Retail,Halciramine,Antimalarial,10,409,,August,2018,Mary Gerrard,Britanny Bold,Delta,Low
Smith Inc ,Sauer and Sons Pharmaceutical Limited,Brzozów,Poland,49.6953,22.0194,Pharmacy,Retail,Rebedase Aplencor,Mood Stabilizers,4,180,720,September,2018,Anne Wu,Britanny Bold,Delta,Low
Stehr-Champlin  ,West Group Pharmacy,Kluczbork,Poland,50.9833,18.2167,Hospital,Government,Abtasol,Antiseptics,1,754,754,September,2018,Erica Jones,James Goodwill,Alfa,Low
Smith Inc ,Koch-Osinski Pharm,Sandomierz,Poland,50.6833,21.75,Hospital,Government,Ampysin,Analgesics,1,243,243,September,2018,Alan Ray,James Goodwill,Alfa,Low
Stehr-Champlin  ,"Blick, Pacocha and Schowalter ",Inowrocław,Poland,52.7958,18.2611,Pharmacy,Retail,Dexmeprazole Transnuvia,Mood Stabilizers,5,180,900,September,2018,Anne Wu,,Delta,Low
Stehr-Champlin  ,Kozey Ltd Pharmaceutical Ltd,Bielsk Podlaski,Poland,52.7667,23.2,Hospital,Government,Relenstrel Exurabine,Antibiotics,550,424,233200,September,2018,Jessica Smith,Britanny Bold,Delta,High
Stehr-Champlin  ,"Gleichner, Bahringer and Morar Pharma Plc",Gostynin,Poland,52.4167,19.4667,Hospital,Private,Halcifergen Nevazone,Antimalarial,3,710,2130,September,2018,Alan Ray,James Goodwill,Alfa,Low
Stehr-Champlin  ,"Herman, Rice and Rippin ",Ziębice,Poland,50.6,17.0444,Hospital,Government,Secrelazine Insonamic,Antipiretics,4,694,2776,September,2018,Jessica Smith,,Delta,Low
